postcode,church_name,debt_centre,latitude,longitude
TW3 4NW,Hounslow West Evangelical Church,False,51.4748508418319,-0.385890739130127
FK8 2NA,"Park Church, Stirling",False,56.114352,-3.940154
HX6 2LW,Christ Church Sowerby Bridge,False,53.7102257220886,-1.907304
WS9 8SL,St Thomas' Church,False,52.620695428011295,-1.91719352318968
DT1 1RR,Dorchester Baptist Church,False,50.7145483251294,-2.44233405694193
IP22 1AN,St Peters Palgrave,False,52.362864,1.106306
BT30 6AW,Downpatrick Presbyterian Church,False,54.328249,-5.71235
TQ12 1BX,This Hope Baptist Church,False,50.5217674089939,-3.59716733809177
SW17 0BY,Summerstown Mission Evangelical Church,False,51.4280292470958,-0.180325999118987
NW6 5QW,Kilburn Salvation Army,False,51.534432,-0.19558
BS22 7PW,"St Mark's Church, Worle",False,51.363805,-2.919159
TN35 5BB,The Salvation Army Hastings Temple,False,50.8709357607761,0.606245258288306
HR1 1QS,Challenge Community Church,False,52.0603572262834,-2.68728116594974
LL11 2NB,Wrexham Community Church,False,53.055254560636705,-2.99597992608401
EX32 9HQ,Holy Trinity Church,True,51.07706707632,-4.05456043536923
MK5 8AJ,Loughton Baptist Church,False,52.028628,-0.784285
BS9 4BT,Emmanuel Westbury,False,51.4866300058879,-2.61078349977743
BS9 4BT,Trinity-Henleaze United Reformed Church,False,51.4866300058879,-2.61078349977743
NE4 7SF,Cornerstone Church Newcastle,False,54.967652112455106,-1.63136034413865
NE4 7SF,The Central Hall - newcastle,False,54.967652112455106,-1.63136034413865
TA6 7EU,Westfield United Reformed Church,False,51.125509685563905,-3.01206153924952
GL53 7NT,Cheltenham Network Church,False,51.8870177759384,-2.07729409060478
BS5 0SQ,Easton Christian Family Centre,False,51.4605336072318,-2.57396080679754
NE45 5AA,St Andrew's Corbridge with Halton and Newton Hall,False,54.9745976966986,-2.01868514899853
PL21 9AB,Ivybridge Methodist Church,False,50.38890855574,-3.921904495649
BS5 6ED,"Chelsea Christian Centre, Easton",False,51.4654589427582,-2.55762622733443
BS8 3BX,Clifton Cathedral,False,51.458833,-2.616947
RH12 1HR,Christian Life Centre - Horsham,False,51.0614057851338,-0.325060834976111
NG5 6BH,"St Paul's Church, Daybrook",False,53.000208,-1.138733
L8 8AN,Toxteth Tabernacle,False,53.3899006160834,-2.96809438411918
NG4 1BJ,"St. Paul's Church, Carlton",False,52.9657776050885,-1.08927106753064
NG8 5GE,St Margaret's - Aspley,False,52.970298,-1.19615
RH13 9BT,Southwater Parish Church,False,51.025272,-0.358576
RH13 9BT,Elim Family Church Southwater,False,51.025272,-0.358576
RH12 1AN,London Road Methodist Church,False,51.0649908543851,-0.329241585872088
RH12 2PJ,St John the Evangelist Church,False,51.0637652637267,-0.33221138687108
BN41 1PE,Lighthouse Community Church,False,50.83287926,-0.219801316
BL2 1JX,The Bridge Church,True,53.57871071,-2.414242
AB53 6WE,St. Kanes Church,False,57.51298794,-2.189465403
NG17 1EB,Sutton Christian Fellowship,False,53.1239825715794,-1.25915815488708
ZE1 0RJ,New Life Shetland,False,60.14606111446889,-1.16342783176313
OX16 0AH,The Peoples Church,False,52.060726639758094,-1.34065591322658
NN3 8JR,Emmanuel Church Northampton,False,52.2570986654357,-0.833606
BA3 5AQ,Oakhill Methodist Chapel,False,51.22422045,-2.524031336
BA3 5AQ,"Beacon Trinity - All Saints, Oakhill",False,51.22422045,-2.524031336
B75 5TJ,Harvest Fields Community Church,False,52.593217,-1.809717948
EH52 5AF,Grace Community Church,False,55.9348140807678,-3.46983241031249
L17 9PE,Grace Family Church,False,53.37828530426751,-2.94813800549344
RM17 6RU,Chadwell: Emmanuel Church,False,51.480711476369294,0.333307586017576
NP8 1DH,Crickhowell Evangelical Church,False,51.8625262362824,-3.14121359958001
BA1 3EA,Weston Methodist Church,False,51.385889,-2.389613552
BA1 3EA,NTCG Bath,False,51.385889,-2.389613552
KY1 2BX,Kirkality Free Church,False,56.1273497442176,-3.138936
DD2 5BA,All Souls Episcopal Church,False,56.461286674062706,-3.06381188668005
DD10 8HD,"St Mary and St Peter, Montrose Church",False,56.7107313610957,-2.46473034501691
KA27 8DA,Arran Baptist Church,False,55.574609,-5.167875
BT45 5PR,Tobermore Baptist,False,54.8096,-6.714492
RG21 7QW,St Michael's - Basingstoke,False,51.2649349730516,-1.08932374303543
RG21 7PZ,Christ Church,False,51.2646023286029,-1.083683
RG21 7PZ,"St Mary's Church, Basingstoke",False,51.2646023286029,-1.083683
PO7 8AW,Church of the Good Shepherd - Crookhaven,False,50.8598032126678,-1.02713179735737
BT80 8PE,Cookstown Methodist - NI,False,54.643579,-6.744197
PO22 6ET,St Nicholas' Parish,False,50.7940450484271,-0.614046615155268
SO50 5LZ,"Emmanuel Baptist Church, Eastleigh",False,50.961945642003904,-1.356453
PO37 7AF,Shanklin Methodist Church,False,50.6303154368646,-1.1780302543272
SO50 5LJ,Eastleigh Baptist Church,False,50.967429378778,-1.35472391899384
BN9 9HN,St Michael's Anglican & Methodist Church,False,50.79094835,0.044785239
FK17 8BN,Callander Kirk,False,56.242612187248895,-4.21378184765247
ST17 9RA,Cannock Chase Methodist Circuit,False,52.792426060496,-2.12167722772428
PA3 2LE,Mossvale Community Church,False,55.854038,-4.433472
B23 6EH,Bethany Pentecostal Church,False,52.52469319,-1.845373349
B23 6EH,Bethany Pentecostal Church,False,52.52469319,-1.845373349
AB15 9NY,Hillview Community Church - Cults,False,57.11721187,-2.197428076
LU6 3HD,My Father's House (RCCG),False,51.884468,-0.519451
B18 5BU,Lodge Road URC,False,52.49369466,-1.929155545
RM9 6UQ,Tree of Life Church,False,51.532371,0.136435
SN15 3GQ,Emmanuel Evangelical Church,False,51.45080260159249,-2.10848562769401
RM6 6JB,St Chads Church,False,51.5709332148975,0.13578965321129
M13 9SX,Brunswick Parish Church,False,53.468279949898495,-2.22644684016029
SG2 9XJ,Grace Community Church,False,51.8917250170724,-0.182131654886115
SG2 9XJ,Grace Community Church - Stevenage,False,51.8917250170724,-0.182131654886115
SE4 2SA,St Andrews Brockley United Reformed Church,False,51.4602950782642,-0.033879723325559
E13 8EQ,RCCG Covenant Sanctuary,False,51.520342902643,0.017786939399008
W11 4TX,Trinity West,False,51.50699194814,-0.215987873606877
W8 6BL,Kensington United Reformed Church,False,51.498738,-0.194776975630799
W8 7PP,Bethesda Baptist Church,False,51.507497334349104,-0.196701826205066
SW3 5TX,Chelsea Methodist Church,False,51.48783363048,-0.167301492821866
SW3 5TX,"Chelsea, Hammersmith and Fulham Methodist Circuit",False,51.48783363048,-0.167301492821866
SW10 0LB,Chelsea Community Baptist Church,False,51.482469395411,-0.182019634082382
CB1 2DG,The Salvation Army Cambridge,False,52.198631055460496,0.136036648274945
CB1 2DG,Kings Church Cambridge,False,52.198631055460496,0.136036648274945
W8 5RQ,Christchurch Kensington,False,51.49805489883249,-0.186182727400267
CB4 2JE,Arbury Road Baptist Church,False,52.2226679337281,0.132475616778432
W8 6QH,"St Philips Church, Earls Court",False,51.495324758760304,-0.195741628358349
BS22 8QY,Seventh Day Adventist Church - Weston Super Mare,False,51.355481139114,-2.93454516458837
PO1 3HQ,St John's Cathedral,False,50.8004051924363,-1.094338
PL14 3AG,Liskeard Salvation Army,False,50.4543023732398,-4.46267876014878
KA12 0AD,Irvine Baptist Church,False,55.6150853118497,-4.665587
KA17 0DR,Darvel Parish Church,False,55.6093714313922,-4.28221041634537
PL1 4DN,Devonport Community Baptist Church,False,50.373106479385,-4.17504702811113
TR14 7DF,Camborne Parish Church,False,50.2137997682121,-5.3023955691826
TR14 7DF,Camborne Cluster of Churches,False,50.2137997682121,-5.3023955691826
TR14 7DF,St Martin & Meriadoc -  Camborne,False,50.2137997682121,-5.3023955691826
PL27 7TA,St Ervan,False,50.493538,-4.974184
PL32 9PB,Camelford Free Methodist Church,False,50.6232358642757,-4.67868162541211
TW12 2JT,Hampton Methodist Church,False,51.4178100505154,-0.374008111436902
TW13 7JA,Oasis Church,False,51.4376824566622,-0.418652904634366
TW8 8DW,Brentford Free Church,False,51.4867617252075,-0.308412414978895
TW9 1DH,Duke Street Church,False,51.4620116668194,-0.303223951107616
TW10 6JQ,St Matthias Church - Richmond,False,51.453425,-0.292647
TW5 9TA,Cranford Baptist Church,False,51.480807879033506,-0.406362
B29 5LE,Weoley Castle Community Church,False,52.436906,-1.971757
BR5 1RD,Poverest Road Baptist Church,False,51.39036684,0.096350732
BR5 1RD,Christ Lutheran Church,False,51.39036684,0.096350732
SS7 3AL,The Beacon - Thundersley Congregational Church,False,51.5632826275354,0.577100134069713
IP13 9PJ,Ashcroft Hall Christian Fellowship,False,52.222187,1.362694
NN15 7QA,Gateway Community Church,False,52.395466,-0.724644
CO10 2AA,Religious Society of Friends - sudbury,False,52.0373399354047,0.729093133489796
ME1 2LD,Cornerstone City Church,True,51.3750125646375,0.506198648084144
M46 0EL,Atherton Salvation Army,False,53.5248086854673,-2.4900852987636
BT19 6NF,Ballycrochan Baptist Church,False,54.652081,-5.625888
SK6 2DA,St Barnabas Parish Church,False,53.4164394805849,-2.12536570670842
S8 0GA,St Chad's - Sheffield,False,53.3396718328202,-1.4862201820351
S8 0GA,"St Chad's Church, Woodseats",False,53.3396718328202,-1.4862201820351
N12 8QJ,St Barnabas Church,False,51.6197238612846,-0.177016259553087
OX1 1BP,St Aldate's Church - Oxford,False,51.7505572193704,-1.25791660482818
NG1 3HX,Trinity Church - Nottingham,False,52.9643624785579,-1.15196695956521
NG1 3HX,Trinity Church - Nottingham,False,52.9643624785579,-1.15196695956521
ST8 6BJ,Biddulph Methodist Church,False,53.1177782641198,-2.1754723541035
OL11 2HB,St Mary's Balderstone,False,53.600688,-2.14611329593714
CB1 9AS,Hope Community Church Teversham,False,52.2017573634706,0.192558904516942
BT13 3LA,"St Matthews, Shankill",False,54.60948,-5.966278
BT13 3LA,Greater Shankill Methodist Circuit,False,54.60948,-5.966278
MK44 3TT,All Saints Church Cople,False,52.1235082158154,-0.392110987354714
PH10 6BQ,Lifeplus Church,False,56.59003,-3.340376
TS18 3EE,Rivers of Life,False,54.56030372824689,-1.31756955948687
HA6 1AS,Emmanuel Church - Northwood,False,51.6093158744933,-0.414602793845264
KY1 1ET,St Bryce Kirk,False,56.1117167743687,-3.16302992146716
L19 6PF,Long Lane Church - Liverpool,True,53.3592552744081,-2.89464372164434
SN25 2EX,Swindon Community Church,False,51.6028602379316,-1.80371573950095
NR31 6LY,Gorleston Baptist Church,False,52.5770691231827,1.72657790249933
B38 8RU,Kings Norton Parish Church,False,52.40709472,-1.930484525
B38 8RU,St Nicolas' Church,False,52.40709472,-1.930484525
SA11 5HR,"St Cadoc, Aberpergwm",False,51.7444329822095,-3.63125241102342
EH14 7AE,St Mungo's Church - Balerno,False,55.8824640220196,-3.33976724987831
DD11 1JU,Arbroath Town Mission,False,56.5637830858082,-2.58571000689454
EX39 1LQ,Westward Ho! Baptist Church,False,51.0402879819272,-4.23649719014292
HU4 6DD,"St Martin's Church, Hull",False,53.742992899616894,-0.392263054816334
PA15 1HG,Greenock Baptist Church,False,55.943869755701,-4.74754835004465
OX3 7PG,St Ebbe's Headington,False,51.756744140113696,-1.21513357532486
GU14 0NA,Southwood Church - farnborourgh,False,51.291337,-0.787735
PE30 5AB,King's Lynn Quakers,False,52.7496547563837,0.397002822999205
WA5 1RD,Life Church - Latchford - Warrington,True,53.387756856301905,-2.6406396839118
W7 3JH,Redeemer Ealing,False,51.5094201290552,-0.341625377797288
N18 2NG,The Kings House,False,51.6197551875945,-0.048075
N9 7LG,St Alphege - London,False,51.6392561905996,-0.050037939409208
EN2 0HG,"St Lukes, Enfield",False,51.6674488754967,-0.083996898827685
CA15 6JT,Maryport Community Church,False,54.7147072155678,-3.498902
N21 1DN,St Peter's Church - langham gardens,False,51.6439030737771,-0.10036828391226
E5 0PD,St John at Hackney,False,51.5505905739871,-0.051872
N14 4TE,Oakwood Baptist Church,False,51.6437723976161,-0.124120792746829
N22 7BY,Braemar Avenue Baptist Church,False,51.6001272243836,-0.118180329020029
SE9 3TZ,"All Saints, New Eltham",False,51.436396,0.07148
W6 0UH,Ravenscourt Baptist Church,False,51.494000813993,-0.236994566143898
BS48 2DS,Nailsea Methodist Church,False,51.4336612194968,-2.76529623566736
SE16 2JY,City Hope Church,True,51.4939206098306,-0.060453074060465
B30 3QG,Lindsworth Community Church,False,52.41125992,-1.908161578
BT43 6JE,Ballyloughan Presbyterian Church,False,54.880259,-6.280032
TR14 7DN,Camborne Parish Church,False,50.213243538493906,-5.30297398133987
CM1 2LQ,Chelmsford Community Church,False,51.7472123853122,0.439869121085178
TD11 3UF,Southview Church Chirnside,False,55.802324791010705,-2.20961721454511
HU5 3QA,Church On The Way - Hull,False,53.753296979147294,-0.359942032966477
EX32 0JJ,"St Paul's, Landkey",False,51.062096,-4.00897
EX32 0JJ,St. Hieritha's Church,False,51.062096,-4.00897
EX32 0JJ,St Paul,False,51.062096,-4.00897
SW12 9SJ,Christ Church Balham,False,51.4425489310282,-0.15194800936888
EX39 2JR,Bideford Baptist Church,False,51.0190111235764,-4.20612816122699
TA2 6LA,Rowbarton Methodist Church,False,51.0263877007684,-3.10613726149528
SE13 5EA,"St Margaret's, Lee",False,51.4609819425924,0.000469357122088
DT4 0ED,Weymouth Independent Evangelical Church,False,50.6219668098262,-2.47225332693902
DT4 0BJ,"St Paul's Church, Westham",False,50.6119542054756,-2.46418183867701
M19 3NS,Levenshulme Baptist Church,False,53.44281484212,-2.18516622369907
LU1 3AL,Luton Christian Fellowship,False,51.873659179334894,-0.417249597787009
TN1 1UT,Christ Church,False,51.1285543042204,0.2625425442601
DE23 8DE,St Giles Normanton,False,52.8990838236366,-1.48690977614191
BT35 6BE,Newry Baptist Church - NI,False,54.177674,-6.341187
BT67 0JE,Maghaberry Elim Church,False,54.50412,-6.192249
CA2 5BT,Carlisle Christian Fellowship,False,54.8907856749486,-2.940895
DA3 8JR,Eastgate Church,False,51.3662080586527,0.305227408112887
BA1 4BX,All Saints Weston,False,51.3956508,-2.390159468
BA2 2TL,Emmanuel Bath,False,51.36044236,-2.381041547
BA1 1LT,Bath Abbey,False,51.38115904,-2.358324034
RM10 9YT,Christ Overcomers International Ministries,False,51.539238,0.164514418757942
IG2 6AG,Cranley Road Christian Church,False,51.5718624536124,0.082596981567441
IG2 6AG,Cranley Road Christian Centre,False,51.5718624536124,0.082596981567441
BS4 1TF,The Cairn (Knowle West Baptist Church),False,51.4204043588838,-2.59370664539699
HP2 4HL,Adeyfield Free Church,False,51.7532716534745,-0.440382741114705
PL10 1PD,Cawsand Congregational Church,False,50.33236703882049,-4.20103656063145
OX28 5AP,Oasis Church Witney,False,51.787424,-1.50204979070124
RM13 8DR,King of Kings Community Centre,False,51.525952183725,0.16833
SG1 1PF,RCCG City Of David Church,False,51.9007733141794,-0.202525
BS22 7ZR,Destiny Church - Western Super Mare,True,51.343878,-2.957028
BS23 3SJ,St Andrew's Church - Bournville - Weston-Super-Mare,False,51.3313320462238,-2.96517273374554
PR7 2EZ,Chorley Methodist Church,False,53.64958816829849,-2.63312072011811
JE2 3XF,"All Saints Church, Jersey",False,99.999999,0.0
ML9 1HX,Larkhall Baptist Church,False,55.7335695401363,-3.96880710374173
LS12 2LJ,The Redeemer Evangelical Mission,False,53.7982257535442,-1.58399407905684
CV6 7GE,North Point Church,False,52.4347171510862,-1.48068225924602
CV34 4EX,Castle Hill Baptist Church,False,52.282049857388095,-1.58416877762048
CV34 4EX,Castle Hill Baptist Church,False,52.282049857388095,-1.58416877762048
CR2 8LA,Croydon Jubilee,False,51.3422868501095,-0.063271762732908
TR10 8PZ,Highway Church,False,50.1674871074391,-5.11670589440943
BS32 0BD,Holy Trinity Church,False,51.5429026046963,-2.55775079214224
CM8 1EP,Bethel Christian Fellowship,False,51.7960420345954,0.632096164327419
B93 8DX,St Philips Dorridge with St James Bentley Heath,False,52.37372791,-1.756827588
CW9 8NF,St Wilfrids,False,53.2366509235754,-2.50693760333619
TA2 7PU,Oakwood Church,False,51.0260917978402,-3.09554980472119
B77 2AT,Tamworth Elim Church,False,52.62691872,-1.676877935
ME10 4PB,Sittingbourne Methodist Church,False,51.3399914998858,0.736892
B8 2AA,Grenfell Baptist Church,False,52.48836609,-1.826738474
EH22 1AX,St. Nicholas Buccleuch Parish Church,False,55.89482400010031,-3.06931573911559
BT15 4EB,St Peter's Parish Church,False,54.633328,-5.936065
DD2 3DE,Lochee Baptist Chapel,False,56.4733340027232,-3.01015653714667
LE4 9EA,Covenant Of Grace RCCG Church,False,52.6530396657847,-1.09721550060305
BS10 5PY,"The Community Church, Southmead",False,51.50006017313991,-2.6079521561467
BS10 5PY,Branch Community Church,False,51.50006017313991,-2.6079521561467
E17 9HX,Shernhall Methodist Church,False,51.5817783608119,-0.003106634295044
EC3R 7NB,St Olaves Church,False,51.510868807656,-0.079952538034914
E1 4LS,Latimer Congregational Church,False,51.52114605555791,-0.042878177469619
SE1 4TR,Haddon Hall Baptist Church - London,False,51.4954462892088,-0.083237092579153
W1J 9LL,St James's Church - Piccadilly - London,False,51.508869810877904,-0.136656278372952
SM4 4SP,Morden Park Baptist Church,False,51.3905136001894,-0.219645327744163
BT21 0DS,Shore Street Presbyterian - NI,False,54.646478,-5.540722
SP11 0RD,"St Thomas' Church, Charlton",False,51.224488,-1.527476
CB3 0PN,Agape Student Life Group Cambridge,False,52.23844,0.084739061848076
CB3 0PN,Girton: St Andrew,False,52.23844,0.084739061848076
WS12 1AB,Hednesford Salvation Army,False,52.708474,-2.001571
SK3 9ET,St. Matthew's Church - Edgeley - Stockport,False,53.4023793644072,-2.17046114437917
BS48 4NG,Holy Trinity Nailsea,False,51.426501,-2.77150702183344
BS48 4NG,Trendlewood Church,False,51.426501,-2.77150702183344
DA8 1LB,Northumberland Heath Baptist Church,False,51.4726332793702,0.156869655169477
IP1 6DH,Whitton Baptist Church,False,52.0769348273734,1.12880599156413
DE7 8DG,Arena Church,False,52.9780608847186,-1.306961
DE7 8DG,Arena Church Belper,False,52.9780608847186,-1.306961
DE7 8DG,Arena Church Nottingham,False,52.9780608847186,-1.306961
DE7 8DG,Arena Church Ilkeston,False,52.9780608847186,-1.306961
DE7 8DG,Arena Church Ilkeston Hub,False,52.9780608847186,-1.306961
CT14 6BA,St George's Church - Deal,False,51.2255107418254,1.40116347222192
NG5 7JX,The King's Church,False,53.0024188650588,-1.11186623607549
TR18 2AA,Shekinah Christian Church,False,50.121053,-5.539012
PO2 7DX,Family Church - Portsmouth,False,50.8087211772108,-1.07768353796764
PO2 7DX,Family Church - Portsmouth,False,50.8087211772108,-1.07768353796764
PO2 7DX,Family Church - Waterlooville,False,50.8087211772108,-1.07768353796764
M6 5PW,Langworthy Community Church,False,53.4863315041492,-2.29515823326321
PE3 8RA,Wellspring Community Church - Peterborough,False,52.5973510831839,-0.272079
DA7 4NR,Bexley Christian Life Centre,False,51.460672,0.139304
SO30 4BZ,"Kings Community Church, Southampton",False,50.9123492779603,-1.31594246579017
DN31 2BP,Catholic Community of North East Lincolnshire,False,53.568131,-0.107476
NR31 7DB,Magdalen Way Methodist,False,52.573623491516706,1.71401686088123
SE18 7BQ,Elim Pentecostal Church - Woolwich,False,51.4852059772933,0.069009927934048
CV1 3EG,Queens Road Baptist Church,False,52.4042383873552,-1.51841961193456
IM1 2LY,Promenade Methodist Church,False,99.999999,0.0
CT9 1NS,The Salvation Army,False,51.3872203350606,1.38462826696218
CF32 9BL,"Church of God, Aberkenfig",False,51.5426572277916,-3.597605
S26 4UA,Bethesda,False,53.3612906889042,-1.31769518580835
WF17 9EJ,Birstall Methodist Church,False,53.7314749077241,-1.65919950498518
BD5 8HH,Olive Branch Bradford,False,53.771586,-1.748968
BT40 1TT,Larne Christian Fellowship,False,54.864299,-5.819305
NE42 6JH,Edgewell Christian Centre,False,54.9571250709338,-1.86306767549183
CW8 3BH,The Stronghold,False,53.2595548294162,-2.56864011459769
M35 9PA,"New Life Church - Failsworth, Manchester",False,53.5114319865862,-2.154146
BL0 9AE,Ramsbottom Community Church,False,53.64913,-2.319381
BT37 9NQ,Abbots Cross Presbyterian Church,False,54.666049,-5.914148
BB5 1HB,Peel Street Baptist,False,53.75305,-2.363497386
BB8 0HP,"New Life Christian Centre, Colne",False,53.85556105,-2.167298507
EX18 7DD,Chumleigh Congregational Church,False,50.9129301575793,-3.86651088309578
OX29 7XZ,St Bartholomews Church,False,51.769991,-1.489748
CF61 1AD,Bethel Baptist Church,False,51.408896138376704,-3.48472421983891
W8 6UX,St Mark's Coptic Orthodox Church,False,51.497116,-0.194605
BT78 3EE,Holy Trinity Dromore,False,54.510805,-7.454496
S63 6RQ,Father's House,False,53.5032681160712,-1.3618391116235
E17 3HG,RCCG Inspiration House,False,51.5866061071264,-0.006734795474198
LA1 2AJ,Grace Baptist Church Lancaster,False,54.0542273271642,-2.79948351587526
LA3 2LG,Heysham Free Methodist Church,False,54.041402,-2.892741
BT28 1XE,Lisburn City Church,False,54.512078,-6.045463
BT28 1XE,"Polish Mission Church, Lisburn",False,54.512078,-6.045463
LA5 9LR,Our Lady Of Lourdes RC Church,False,54.1256935598817,-2.76281895762089
HG1 1PP,Wesley Methodist Chapel,False,53.994054727459506,-1.542068
DA4 0HF,St Peters and St Pauls,False,51.36629345117849,0.21219349381782
SP2 8ER,Harnham Free Church,False,51.0552336401004,-1.79690540587209
BA15 1DA,Bradford-on-Avon Community Church,False,51.34585645,-2.251800596
SN2 1AB,Bible Life Fellowship Centre,False,51.5718020099672,-1.77730024266053
HA3 7DU,Wealdstone Methodist Church,False,51.5979197644966,-0.333870084472116
SP7 9JZ,"St Peter's, Shaftesbury",False,51.01458614157,-2.18810414425753
OX2 9QN,PCC Of Cumnor,False,51.733564065696,-1.33140848984531
OX2 9QN,"St. Michael's Church, Cumnor",False,51.733564065696,-1.33140848984531
BH1 3ED,Love Church @ St Swithun's Bournemouth,True,50.7206203,-1.860810637
DA9 9ND,St Marys Greenhithe,False,51.447130345310704,0.283107911012726
DE23 6UU,New Life Church - Derby,False,52.9097609101603,-1.47811472876336
WV10 6PN,St James' Church,False,52.6317827554748,-2.12068348766492
WV3 8HJ,"Church of the Good Shepherd, Castlecroft",False,52.5806287703954,-2.1906274751679
WV10 8JP,St Marys Church,False,52.619607199433105,-2.11512560971267
RH19 2HA,"Trinity Methodist Church, East Grindstead",False,51.1331253690204,-0.018549946386524
AL7 1FT,Herts International Church,False,51.807698,-0.189238051
LN9 5HF,Life Church Horncastle,False,53.208387,-0.118231
EH21 6JQ,Musselburgh Baptist Church,False,55.945153694408894,-3.05861369133565
KA20 3LA,Ardeer Parish Church,False,55.6328569214912,-4.75118252813561
PA3 1NR,St Ninian's Parish Church,False,55.8491820268361,-4.45347439962544
KA12 8AS,Irvine Church of the Nazarene,False,55.617193893042305,-4.66842872544927
PA1 1XL,St Matthew's Church,False,55.8423919886659,-4.42194538084936
PA1 1XL,Re:Hope Paisley,False,55.8423919886659,-4.42194538084936
FK1 4BN,Camelon Parish Church,False,56.0043189544446,-3.80786694574172
DH7 6TF,Witton Gilbert Methodist Church,False,54.8061898301752,-1.63906902795324
CH48 4DQ,West Kirby Methodist Church,False,53.3709127255612,-3.18107842397947
HG2 7SG,Woodlands Methodist Church,False,53.9907562582768,-1.51249931013767
SW10 9HF,HTB - St Luke's - Earl's Court,False,51.4873317572464,-0.188826476147719
W4 2HF,Chiswick Baptist Church,False,51.49208670921809,-0.25511808805979
PE1 2RS,"St Peter and All Souls RC Church, Peterborough",False,52.576642,-0.243483
KY2 6EJ,Templehall Parish Church,False,56.128781490361,-3.18552156991497
SE6 1AU,Brownhill Road Baptist Church,False,51.4448444448124,-0.005071292456554
SE4 1JL,Christ Embassy Catford,False,51.4575857486128,-0.0262374140855
SE7 7DF,Blackheath And Charlton Baptist Church,False,51.4777933051085,0.032656987738478
BR3 1AX,St Georges Beckenham,False,51.40918636,-0.024612553
BR8 8AF,Christ Church Swanley,False,51.39465514,0.179707612
PR1 7NB,Plungington Community Centre,False,53.768958,-2.712261
PR1 7NB,Emmanuel Church Preston,False,53.768958,-2.712261
BT37 9RU,Evangelical Alliance - NI,False,54.67005,-5.902014
BS7 0RR,Filton & Stoke Gifford Community Church,False,51.5040112787189,-2.57328246039251
G1 5RH,Glasgow Central Vineyard,False,55.856281179301504,-4.24722
ST7 2AF,Wesley Place Methodist Church,False,53.096335616672,-2.30259009328342
FY1 4EL,The Salvation Army: Blackpool Citadel,False,53.8181121552476,-3.04389360261732
CM15 9SE,Brentwood Vineyard,False,51.648006932288894,0.273383981506513
EX7 9PB,Dawlish Methodist Church,False,50.580307336647905,-3.46941171266909
BH6 5EH,All Saints Southbourne,False,50.72963025,-1.814948583
EX6 8BT,Exminster Methodist Church,False,50.67796079669,-3.49461085063604
BH9 2UU,Moordown Baptist Church,False,50.75867405,-1.87389713
BH2 6JJ,Richmond Hill St Andrew's Church,False,50.72288406,-1.883257938
B15 3DQ,St Georges,False,52.46776346,-1.922499421
BH10 7LN,St Andrew's Church,False,50.77119325,-1.90384248
ST8 7RG,St Lawrence's - Biddulph,False,53.127643789729504,-2.16600788331351
N15 6HA,Woodberry Down,False,51.575392614580096,-0.082918
PR6 0NA,St James Church - Chorley,False,53.64879652748991,-2.61776865427181
CR0 0EE,New Addington Baptist Church,False,51.3392130873568,-0.00784
NN14 3DZ,World Mandate Ministries,False,52.411805,-0.442017
LE9 1SE,Cosby Community Church,False,52.5495268041916,-1.19955177060148
RM10 8AJ,Beacontree Methodist Church,False,51.5429678103226,0.163917
BN18 0EE,St Mary's Yapton with St Andrew's Ford,False,50.82277774,-0.611009773
CF10 5BR,The Bay Church,False,51.46415952555169,-3.16968188153537
G51 2YL,Govan and Linthouse Parish Church,False,55.8628734458695,-4.31085122905586
NG16 6AN,Selston Church of Christ,False,53.072250940704095,-1.29338990486252
SE25 5DS,Church of God of Prophecy Croydon,False,51.3855734396135,-0.07006792913544
CW8 3NJ,St Marys,False,53.2634943437618,-2.57749271864306
PL8 2LZ,Yealmpton Community Methodist Church,False,50.345865,-3.994998
BS4 2AD,Severn Vineyard,False,51.441462,-2.57783789449223
WD17 2RE,Grace Altar Mission,False,51.6584276823947,-0.3899452830994
EN2 6TG,Enfield Baptist Church,False,51.6514484426603,-0.085466784689539
CF5 6LF,Croes-y-Parc Baptist Church,False,51.4732558210088,-3.32707413278524
LE9 8DE,Barwell Methodist Church,False,52.566876068994,-1.34407101492912
AB31 5EZ,"St Ternan, Banchory",False,57.08185003,-2.341409877
G33 3QN,Ruchazie Parish Church,False,55.86928994283689,-4.17125992271126
TF5 0BN,Hope Community Church,False,52.7130255049191,-2.5431642099596
SM1 3DA,All Saints Benhilton,False,51.3732346005359,-0.192355794825574
SK1 1YG,St Mary's in the Marketplace - Stockport Parish,False,53.4096916936474,-2.1538376129604
E16 4NT,Saint Mathias Canning Town,False,51.522797973617,0.010976100317036
NP19 0JF,Lliswerry Baptist Church,False,51.5825610176427,-2.96107749463623
S3 9AQ,Christ Church Pitsmoor,False,53.39807844896551,-1.46728973665561
S3 9AQ,Sheffield Central,False,53.39807844896551,-1.46728973665561
S3 9AQ,Sheffield PIWC,False,53.39807844896551,-1.46728973665561
LN4 1AT,Washingborough Methodist Church,False,53.224136404646096,-0.476220448586166
PA12 4BG,Calder United Free Church,False,55.7985374629296,-4.62810432843327
LE3 3HL,Beacon Life Church,False,52.6264700966802,-1.21262717171995
TQ12 3GA,Kingsteignton Community Baptist Church,False,50.544747,-3.60043541705323
HP15 6TD,Holmer Green Baptist Church,False,51.6670038176171,-0.690773747113366
EX38 8AL,Torrington Methodist Church,False,50.950511820248494,-4.14798123698648
EX21 5SJ,Shebbear (Lake) Methodist Church,False,50.8638644652543,-4.20736338198115
TN34 2RA,St Barnabas Church,False,50.881564963975,0.585843
TN34 2RA,St Helen's Ore,False,50.881564963975,0.585843
W6 9BE,St Peter's,False,51.492255933459,-0.242363007656862
N22 5DT,Eldon Road Baptist Church,False,51.5991443753147,-0.096821926206863
N8 8AX,Christ Church Crouch End,False,51.5763629497936,-0.127907888397718
SN1 1JL,Citifaith Church,False,51.5599615546652,-1.782854
BN1 4GU,St Peter's - Brighton,False,50.828646,-0.135876401
EN3 4DG,Ponders End Methodist Church,False,51.6500122557267,-0.046858723416777
W12 9RN,Askew Road Church,False,51.5018543056526,-0.243794778719134
N17 7AA,All Hallows,False,51.599926759515,-0.076414965526291
N6 6BA,Highgate URC,False,51.570964184263694,-0.149241221873726
TA19 0LP,"St Michael's, Shepton Beauchamp",False,50.9521631710349,-2.8506925404644
NP7 5PE,Cornerstone Evangelical Church,False,51.8231902401563,-3.017394
CV6 1HH,Lawrence Saunders Road Baptist Church,False,52.4198453741465,-1.52288150267732
BN14 8JL,Broadwater Baptist Church - Worthing,False,50.826972,-0.36483
BT19 6EU,Ballycrochan Presbyterian Church,False,54.651573,-5.632927
GU47 8HN,"St Michael & All Angels, Sandhurst",False,51.349512,-0.814516484874672
LU3 9DX,"Cornerstone Church, Luton",False,51.8799775505,-0.4229264084
OL8 1DL,Our Lady and St Patrick RC Church - Oldham,False,53.5390210512061,-2.11939092565135
BS20 6AH,"Enjoy Church, Somerset Hall",False,51.48433829485231,-2.76807434719461
CR0 3QA,Elim Pentecostal Church - Croydon,False,51.3873320451095,-0.11400254477989
PO9 5NT,Leigh Park Baptist Church,False,50.8660014646257,-0.979071
KT6 6LN,Baptists Together in Surbiton,False,51.38872502445351,-0.29839061849672
CH65 6RS,The Salvation Army Ellesmere Port,False,53.275094,-2.908736
B1 3QQ,Birmingham City Church,False,52.48181494,-1.910415
GU2 4BE,Guildford Baptist Church,False,51.2331031010394,-0.576203870906768
RG14 5DD,Newbury Baptist Church,False,51.398485,-1.321483
G14 0QL,Yoker Evangelical Church,False,55.8883752731022,-4.37855961654036
RG23 7ED,"St Leonard's Church, Oakley",False,51.249591,-1.187731
SK10 2UD,Tytherington Family Church,False,53.276262551139695,-2.13273740039198
GY6 8YZ,Rohais Methodist Church,False,99.999999,0.0
CF3 3BD,Rumney Baptist Church,False,51.5047323355123,-3.13011813483137
OL4 1NL,St. Barnabas - Clarksfield - Oldham,False,53.5430215992877,-2.08744072712609
ML11 8AA,Forth St Paul's Parish Church,False,55.7659113350608,-3.68751435755642
RM6 6QJ,International Christian Centre Chadwell Heath,False,51.5711958479398,0.13173244658136
TS20 2QQ,The Destiny Centre,False,54.585256610230495,-1.3105146437835
TS20 2QQ,Destiny Church Tees Valley,False,54.585256610230495,-1.3105146437835
CM13 1QT,Hope Community Church - Brentwood,False,51.6301604155294,0.357542
BT39 9BG,The United Parish Christ Church And St Johns,False,54.751327,-6.00478
BT60 3BY,Armaghbreague Presbyterian Church,False,54.214754,-6.652685
NP4 0HE,Little Mill Baptist Church,False,51.7205448728584,-2.98603445702089
CB24 9JE,St Andrew's Impington,False,52.2531545441682,0.104693573612469
LN2 1PX,Lincoln Cathedral,False,53.233933,-0.537647
EH54 6QR,Dedridge Baptist Church,False,55.8783253234104,-3.51530086283838
B98 7QS,St John the Evangelist,False,52.29194363,-1.922248438
E1W 3DH,St Paul's Shadwell,False,51.509516981214894,-0.053046398113718
IP32 6NL,West Suffolk Vineyard Centre,False,52.2668400079511,0.699765
G67 1QR,Freedom City Church - Glasgow,False,55.946508,-3.991549
G67 1QR,St Mungo's Church - Cumbernauld,False,55.946508,-3.991549
SO51 8ZB,Freedom Church,False,50.9936573140235,-1.50112484414103
BH25 6RZ,New Life Church,False,50.7524072,-1.661820336
E11 4HS,Family Foundation Community Church,False,51.5565260521257,-0.001328
E11 4HS,New Testament Assembly Leyton,False,51.5565260521257,-0.001328
CR0 0DL,RCCG The Gateway Church,False,51.3385525792807,-0.013738443174267
CR0 0DL,St Edward King & Confessor C Of E Church,False,51.3385525792807,-0.013738443174267
LU4 0QQ,Divine Interventions Ministry,False,51.901824326340495,-0.494243306190914
NP16 5QZ,The Bridge Church,True,51.631642,-2.672458
BN17 5EG,Littlehampton United Church,False,50.80992149,-0.543474034
DT3 5PA,"St Nicholas Church, Broadwey",False,50.651846033411,-2.46880450203495
DT4 8JE,The Prayerhouse,False,50.608627522181294,-2.46174659528122
TA6 6SE,St. Mary's Church North Petherton,False,51.09146284242271,-3.0153733058785
TA6 3EQ,St. Mary's Church Bridgewater,False,51.1274074893866,-3.00471488772731
TA6 3EQ,Bridgwater Baptist Church,False,51.1274074893866,-3.00471488772731
LU1 5JE,Farley Hill Methodist Church,False,51.8747159304726,-0.432378560893888
BR8 7BT,Hope Community Church,False,51.40107169,0.171716976
BR3 1TP,St Paul's Beckenham,False,51.41480922,-0.032236706
BR3 1TP,St Paul's Church Beckenham,False,51.41480922,-0.032236706
BR2 0EG,Bromley Parish Church,False,51.40540353,0.012723122
BR5 2SA,"Giggs Hill Church, St Pauls Cray",False,51.4056944,0.099165352
DY1 3TY,Upper Gornal Pentecostal Church,False,52.5269259226602,-2.11118288773276
IV31 6AD,Lossiemouth Baptist Church,False,57.72121710399,-3.28301798418107
CV31 1JW,Churches Together In Leamington And Warwick,True,52.284123621784,-1.52159858381851
CV31 1JW,"St Mary's Church, Leamington Spa",True,52.284123621784,-1.52159858381851
BT28 1LP,The Journey,False,54.506915,-6.051222
CH1 5RS,Matthew Henry Evangelical Church,False,53.2003462895278,-2.93451952425748
YO12 4QG,"St Martin's Church, Seamer",False,54.2371073433592,-0.444512812128521
NG9 6EN,"St Peters, Toton",False,52.905634097499906,-1.25386203661537
NP7 0AU,Hope Baptist Church Gilwern,False,51.8249321415936,-3.09404801698497
NR13 5QG,Brundall Church,False,52.6286106294094,1.42934353235655
B13 8AR,Riverside Church,False,52.453631,-1.88734
B79 8JB,St Francis' Church,False,52.644445,-1.702435
SA12 6SF,Elim Pentecostal Church Port Talbot,False,51.597076997199,-3.80819189084433
B28 9BH,Christchurch Hall Green,False,52.43356184,-1.845338941
BT19 7WP,Bangor Elim Church,False,54.64201,-5.673577
MK45 1BF,Woburn Benefice,False,52.004377010134,-0.493892788591335
MK45 1BF,St Mary Magdalene Church,False,52.004377010134,-0.493892788591335
NG31 6EY,Jubilee Christian Fellowship,False,52.9092905270976,-0.639135229300319
NR7 8SQ,Proclaimers Church,False,52.6496707657104,1.32768507553644
OX1 1LQ,New Road Baptist Church,False,51.7518940390912,-1.26031393821114
NN11 4AA,Daventry URC,False,52.2570750550608,-1.16361367482954
BH9 2AU,Bournemouth Community Church,False,50.74945999,-1.877068589
DA6 7AY,Trinity Baptist Church - Bexleyheath,False,51.4581358651041,0.138753451651801
SE4 1ST,Brockley Baptist Church,False,51.468515057227904,-0.033382385788773
SE13 7DD,Brockley Community Church,False,51.461413238003,-0.022833197217208
ST2 9AQ,Bucknall Team Ministry,False,53.0245295362664,-2.14605071121552
ST2 9AQ,St Mary's Bucknall,False,53.0245295362664,-2.14605071121552
LS7 4NB,Chapel Allerton Methodist,False,53.828757557323506,-1.53721633249386
LS7 4NB,Chapel Allerton Methodist Church,False,53.828757557323506,-1.53721633249386
PL3 4QG,Plymouth Vineyard Church,True,50.39444653841431,-4.14571639550566
PL3 4QG,Hope Baptist Church - Plymouth,True,50.39444653841431,-4.14571639550566
GL54 4LA,Coln River Group of Parishes,False,51.876753292113,-1.9672692034851
LE10 0NF,St John's Hinckley,False,52.535341105725,-1.403762
SO50 9DF,"Holy Cross, Eastleigh",False,50.969373947918,-1.35512423416898
RG14 2DR,St Mary's Shaw cum Donnington,False,51.4110636834126,-1.31692602803699
RG14 1AN,Newbury Methodist Church,False,51.4048167868608,-1.32509863017324
BT32 4AA,Seapatrick Parish Church (Holy Trinity),False,54.352781,-6.267244
BT32 4AA,Grace Generation Church,False,54.352781,-6.267244
SN8 1AH,Christ Church Methodist Fellowship,False,51.4216216450646,-1.728572
SN5 7AR,Gateway Church Swindon,False,51.5618463944548,-1.81779850302215
SN1 1PX,Central Church Swindon,False,51.5589357980026,-1.78233956540349
HA0 2LP,Sudbury Methodist Church,False,51.5558050290982,-0.317190429130397
HA0 2LP,The Potter's House Church - Wembley,False,51.5558050290982,-0.317190429130397
HA0 2LP,Church of God of Sabbath Keeping,False,51.5558050290982,-0.317190429130397
PH50 4QH,Kinlochleven Church,False,56.7150324935976,-4.966391
SA19 7LJ,St Sawyl Church,False,52.006149,-4.016643
TQ12 4LQ,St Lukes Milber - newton abbot,False,50.520569841996306,-3.59004522013652
HP20 2JJ,St Mary's - Aylesbury,False,51.8182288572093,-0.815823572258939
SE1 3UW,"St Mary Magdalen, Bermondsey",False,51.4990306153884,-0.080810303241748
EC1Y 1AU,Wesley's Chapel,False,51.5238358216544,-0.087090582811655
EC1Y 1AU,City Road Methodist Circuit,False,51.5238358216544,-0.087090582811655
BT15 1GQ,St Pauls and St Barnabas Belfast,False,54.612287,-5.924315
TR1 1PB,3 Rivers Vineyard Church,False,50.2630718254449,-5.03988188041661
LU4 8JD,Holy Ghost Roman Catholic Church,False,51.88770502506289,-0.433437921011818
KA22 7LD,Ardrossan Park Church,False,55.652111507671506,-4.81102153079905
BT66 8ED,The Salvation Army - Lurgan - NI,False,54.459133,-6.334075
UB8 2QX,Waterloo Road Church,False,51.5423293228022,-0.487160591514278
TD9 9HL,Hawick Congregational Community Church,False,55.4255237470403,-2.7836071637709
TD6 9LJ,Melrose Parish Church,False,55.60050923197151,-2.72249915324492
IP4 4QE,"St Johns Church, Ipswich",False,52.059666662953106,1.18216819551141
BT67 0QJ,Magheralin Parish Church,True,54.465206,-6.260766
BT5 6JH,Knock Presbyterian Church,False,54.591891,-5.857627
CB1 3HR,The C3 Church - Cambridge,False,52.198481216525906,0.156135806971913
BD21 1QS,Church of the Nazarene Keighley,False,53.86336979,-1.916576762
DE23 6EP,Littleover Methodist Church,False,52.9064741834212,-1.51061200038489
SO16 4QF,Millbrook Christian Centre,False,50.9201182150395,-1.45688441457572
BN14 8AE,Elim Worthing,False,50.82024174,-0.372391246
TN2 4HT,Pembury Baptist Church,False,51.147329500941105,0.328218775473298
N22 6UB,Faith Miracle Church,False,51.5933375555381,-0.114793852251605
CB1 3JB,Rock Baptist Church - Cambridge,False,52.2042012306424,0.151641615957176
SY3 7DN,Barnabas Community Church - Shrewsbury,False,52.704377365312894,-2.74784094436279
NR6 6RF,Soul Church,False,52.65509717439151,1.280731
TS6 0NP,The Salvation Army Eston Corps,False,54.553344782586,-1.15347016368271
DN5 0HU,Manna Community CIC,False,53.5499376869281,-1.14835306842115
EX8 1PN,Exmouth Chapel,False,50.621030477942895,-3.41189999990592
IG1 1QP,High Road Baptist Church,False,51.5607424274811,0.083387336681805
IG1 1QP,SS. Peter & Paul,False,51.5607424274811,0.083387336681805
SY11 2QR,Hope Church Oswestry,False,52.8561914313956,-3.04482208351492
PE3 6DP,City Church - Peterborough,False,52.5779154898273,-0.255519916457715
KA12 8QJ,Fullarton Parish Church,True,55.615809,-4.67510844632929
RG14 6AH,Kennet Christian Centre - Newbury,False,51.3955864085527,-1.33210497091014
LS25 1AA,Dayspring Church,False,53.794851526623695,-1.38799738614336
DY4 8DJ,St Matthew's Church,False,52.5285984808604,-2.07675366113167
TW16 6QQ,Open Door Church,False,51.4124624124954,-0.418243377275505
TW16 6QQ,Open Door Sunbury,False,51.4124624124954,-0.418243377275505
KT12 2RG,Walton Baptist Church,False,51.3851546039098,-0.41639700600319
CM12 9LD,Emmanuel Church,False,51.620264,0.415765187650296
KW17 2DH,Westray Baptist Church,False,59.321088,-2.989248
CA12 5NN,Crosthwaite Parish Church,False,54.60248898020151,-3.14123854431266
AB21 7DN,Dyce Parish Church,False,57.20816096,-2.188279768
B49 5LJ,Cookhill Baptist Church,False,52.220003,-1.919651
PE19 5YW,St. Marys Parish Church,False,52.2908923794512,-0.250630459619412
CA22 2SD,Whitehaven Methodist Church,False,54.4651467063183,-3.52960321104984
LS16 8DQ,"Adel Parish Church, John the Baptist Church",False,53.855702,-1.58828846735605
LS16 8DQ,Adel St John the Baptist,False,53.855702,-1.58828846735605
SN8 3AG,All Saints -  Burbage,False,51.3516986777042,-1.66739637232891
EH4 1DW,St Stephen's Comely Bank Church of Scotland,False,55.959730719918,-3.217942
E3 4TU,East London Tabernacle Baptist Church,False,51.524078,-0.034218
S4 7YA,New Life Millennium City Church,False,53.3876625964204,-1.45754
DN14 5DA,"Trinity Methodist Church, Goole",False,53.7037928737138,-0.872804187405189
TW3 1HG,Holy Trinity Hounslow,False,51.468656826400306,-0.363951456764511
CV31 2HB,Lighthorne PCC,False,52.271785,-1.522684
CV31 2HB,St Margarets,False,52.271785,-1.522684
NP10 9BX,Cefn Wood Baptist Church,False,51.583879542393696,-3.04457231925353
SE1 9DA,Southwark Cathedral,False,51.506317,-0.089199754234049
N4 4EL,Holy Trinity,False,51.5755,-0.111630242791952
M14 5QP,Victoria Park Fellowship,False,53.459107462367,-2.20906315681989
DL13 1DA,Heatherycleugh,False,54.76091502490431,-2.22720931881723
SE10 8TY,Wesleyan Holiness Church - St Mark's URC & Methodist Church - Greenwich,False,51.4765517074866,-0.01294777193364
N10 2PT,Muswell Hill Baptist Church,False,51.5919520065412,-0.140533
N10 2PT,Biserica Cetate de pe Munte,False,51.5919520065412,-0.140533
N17 8AD,Tottenham Baptist Church,False,51.6007004654161,-0.06822375138508
N2 0TH,Holy Trinity East Finchley,False,51.5917864170904,-0.174814472508422
DA14 6BX,St John The Evangelist Church,False,51.4246953996658,0.104739814776065
BR2 7HU,Hayes Free Church,False,51.38079862,0.004357564
G71 7EP,Park Church Uddingston,False,55.8191130531099,-4.08247058438162
EN2 6AN,Enfield Methodist Circuit,False,51.6524264897822,-0.085888172024985
EN2 6AN,"Trinity Church, Enfield",False,51.6524264897822,-0.085888172024985
IV2 4UA,Hilton Parish Church,False,57.4633469949808,-4.21096897884401
SN5 8SX,Toothill Church,False,51.5535265253552,-1.82181246305745
G42 7AT,Glasgow Elim Church,False,55.8405550892324,-4.25774380100498
RG5 4UX,Woodley Baptist Church,False,51.4541407097396,-0.887815872736014
SP1 3LN,Kings Church Salisbury,False,51.081518,-1.801716
HP18 9AF,Long Crendon Baptist Church,False,51.77279127926,-0.992978073828592
BN3 1JN,Holland Road Baptist Church - Hove/Brighton,True,50.82743672,-0.161136833
LN2 3QN,"Grace Church, Lincoln",False,53.2967507938698,-0.470276071774799
IV55 8WQ,Duirinish Church of Scotland,False,57.426274,-6.582697
IV55 8WQ,Bracadale Church Of Scotland,False,57.426274,-6.582697
SO14 1PJ,James Street Church,False,50.9044571164769,-1.39541537626532
LN5 7SR,St Peter-at-Gowts with St Andrew?s,False,53.221512040287294,-0.543867002732849
LN5 7SR,St Botolph-by-Bargate,False,53.221512040287294,-0.543867002732849
LA3 1TR,Stanley Road Baptist Church,False,54.0627859931971,-2.88513225151425
LA3 1TR,Lancaster And Morecambe Churches Together,False,54.0627859931971,-2.88513225151425
CA17 4AB,Kirkby Stephen Evangelical Church,False,54.472515189344705,-2.34695207280766
PO6 3NB,Christ Church Portsdown,False,50.8548072419763,-1.05276548085378
BT27 6XG,Legacurry Presbyterian Church,False,54.475083,-6.007239
TN19 7NA,St Philips,False,50.9880550399708,0.334787350140103
CB1 2BD,St Barnabas Church,False,52.1993171837371,0.138367041523248
NR27 9JT,Cromer Christian Fellowship,False,52.9289920845556,1.28605930891475
PE21 9NS,Holy Trinity Boston,False,52.9840922688282,-0.01474528854939
NR28 9BS,New Life Walsham,False,52.8214390436396,1.38553611749539
PE31 7LX,Snettisham Christian Fellowship,False,52.8794797039848,0.503932100216057
NR19 1LD,Toftwood Methodist,False,52.666119099247695,0.940708302717362
EX4 1JP,Exeter Indepndent Evangelical Church,False,50.7195528798922,-3.54917173249441
EX4 9BE,Beacon Heath Church,False,50.7392533440758,-3.50065750335138
CW9 8BJ,Emmanuel Church Leftwich,False,53.2463573491836,-2.50519411005408
YO10 5AA,Calvary Chapel York,False,53.9538885905718,-1.07158549829584
YO31 9EY,Christ The Light Church - York,False,53.984659616174,-1.06179710204208
YO26 6AB,The Church Of The Holy Redeemer,False,53.966282622822895,-1.125319
SW2 4LH,New Park Baptist Church,False,51.445747,-0.1307552307563
SK10 2PX,Holy Trinity Hurdsfield,False,53.265642754406706,-2.11032052842002
SM6 9AA,Springfield Church,False,51.3583802726385,-0.146417898014541
HA9 9BS,Wembley Church of Christ,False,51.561678296713,-0.266017167318456
OX12 7PR,Grove Free Evangelical Church,False,51.61130122248,-1.41778966870815
EX4 2AA,St Andrew's Church,False,50.73232028009689,-3.54872857855177
BH1 2EN,Wessex Christian Centre,False,50.71952068,-1.874469473
EX3 0HN,St Margaret's Church - Topsham,False,50.6830197623234,-3.46592275757973
EX4 3AJ,Westgate Christian Fellowship,False,50.720634177059296,-3.535989
PO6 4AS,St Michael's Paulsgrove,False,50.850780322353295,-1.09377344037597
PO2 9LU,North End Team Ministry,False,50.830129234552096,-1.07381138831428
BH9 1DE,Poole Bay Methodist Circuit,False,50.73873286,-1.869770031
BH9 1DE,Winton Methodist Church,False,50.73873286,-1.869770031
RG18 4QL,Thatcham Evangelical Church,False,51.403883904837905,-1.255804
RG7 4HR,St Mary the Virgin,False,51.379944,-1.14676965448642
BN21 1PY,Living Stones Community Church,False,50.774508,0.266327541
CM14 5QP,South Weald: St Peter,False,51.61736610493929,0.269309669436181
BN7 2LR,Eastgate Baptist Church,False,50.87515322,0.013387392
CA14 4SY,St Oswald's Church Dean,False,54.6107528921064,-3.46325872490241
TN21 0ER,Horam Chapel,False,50.93553496289191,0.244250048932489
SG16 6DF,Hitchin Christian Assembly,False,52.0271096214873,-0.283667782381753
BN3 7NH,Bishop Hanington Memorial Church,False,50.84343513,-0.189117
RH12 5PU,St Mark's Church,False,51.0825219892121,-0.314092
NE1 7BJ,Junction 42,False,54.9745616708739,-1.6136905946701
NE1 7BJ,Brunswick Methodist Church,False,54.9745616708739,-1.6136905946701
NE1 7BJ,Newcastle upon Tyne (Central and East) Methodist Circuit,False,54.9745616708739,-1.6136905946701
TD5 7JH,Kelso Baptist Church,False,55.5998804392918,-2.43509475872482
AB15 4AB,Rubislaw Church,False,57.14398001,-2.129670007
AB10 6UZ,Mannofield Church,False,57.13199703,-2.137722607
EH45 8SW,Peebles Old Parish Church,False,55.65157976518449,-3.19156
EH45 8JU,St Joseph's Catholic Church,False,55.6536984915966,-3.19650166974433
EH11 3EE,Stenhouse Baptist Church,False,55.9335967780146,-3.26109397199778
BH24 3DT,The King's Church Ringwood,False,50.84246258,-1.766142932
CM2 0EY,Grove Road Evangelical Church,False,51.7286501070016,0.472162846082715
M13 0LG,Community Church of the Nazarene - Longsight,False,53.4599391663797,-2.20632615393853
DN2 4HN,St Paul's CoE - Doncaster,False,53.538556,-1.112095
SA43 1HU,New Life Christian Centre,False,52.0819777053642,-4.66192373503274
CO12 3ND,The Salvation Army - Harwick,False,51.9451967779958,1.28725376307658
TR3 6DP,Threemilestone Methodist Church,False,50.261535835458496,-5.11547773828644
PO15 5RP,Titchfield Evangelical Church,False,50.8608258310653,-1.24978820476449
TR15 3HY,Grapevine Community Church,False,50.2360487868473,-5.26129513277622
HA3 9LZ,New Life Suwartya Sangat,False,51.58923841023471,-0.295398763473205
DT4 0JQ,Ebenezer Evangelical Church,True,50.61255303532,-2.46735363432515
PH2 8PD,The Salvation Army,False,56.395252,-3.42913185116276
WC1N 1BJ,Salvation Army Men's Resettlement Hostel,False,51.5258679309931,-0.123824106659718
DT11 9ND,St Mary's Church,False,50.84760998469449,-2.15567008474638
DT11 9ND,Blandford: St Mary,False,50.84760998469449,-2.15567008474638
NN8 1ET,Compass Church Wellingborough,False,52.300504,-0.69159
BN17 6BD,Parkside Evangelical Church,False,50.81043233,-0.531137808
RH2 7LR,Reigate Baptist Church,False,51.2256075517391,-0.196298174659418
M20 5NE,Emmanuel - Didsbury,False,53.4090703516243,-2.22285253481795
NR18 0QB,Alive Church - Wymondham,False,52.5711597297484,1.113299
CV1 5AB,Coventry Cathedral,False,52.409221256932895,-1.50806021668076
NE6 1SD,Kingdom Life Church - Newcastle,False,54.9785181025348,-1.57920170127418
OL9 6JH,Firwood Church,False,53.5433399350368,-2.13219986764751
OL9 6JH,Firwood Church,False,53.5433399350368,-2.13219986764751
BS48 4YE,Nailsea Baptist Church,False,51.424167,-2.75553238237221
DN4 0JD,Evangelical Methodist Church,False,53.51363,-1.157948
SS17 0EY,Gateway People's Centre - Stanford-le-Hope,False,51.514886932543696,0.427157191522924
PO14 4PG,Locks Heath Free Church,False,50.8572603915104,-1.25754583951423
PO14 4PG,Waypoint Church,False,50.8572603915104,-1.25754583951423
CR8 2PD,Montpelier Church,False,51.3348292883542,-0.118842580285532
NE61 9FE,Morpeth Baptist Church,False,55.1678725012,-1.6919475411
CM15 9SA,Pilgrims Hall,False,51.644436,0.271167
HD3 4BZ,The Salvation Army Huddersfield Corps,False,53.6537000747688,-1.82062756341141
PR9 0LA,Lakeside Church,False,53.659654,-2.998691
SY12 0HB,"St Mary's Church, Ellesmere",False,52.9069655197163,-2.88914573850039
TS5 6JR,St Barnabas - Middlesbrough,False,54.562464336996,-1.24407570501065
HA4 6SR,South Ruislip Christian Fellowship,False,51.5541272063712,-0.399732115964583
B47 5HN,Hollywood Christian Life Centre,False,52.38524673,-1.882312424
BD19 5AR,Cleckheaton Methodist Church,False,53.7226468,-1.713509488
BS24 8DA,St Augustine's Church,False,51.332538927297506,-2.91451398251609
SY7 8JG,St George's Church,False,52.4188814345607,-3.028541
SA14 6EW,Carmel Apostolic Church,False,51.7872231703978,-4.11840641289923
SA14 6EW,Tumble - Carmel Apostolic Church,False,51.7872231703978,-4.11840641289923
L21 8NS,Linacre Methodist Church,False,53.4639030511112,-2.99796054258394
L21 8NS,Liverpool (North) Methodist Circuit,False,53.4639030511112,-2.99796054258394
MK18 1ET,Well Street United Church,False,51.9976091978753,-0.989005864674991
DY4 8NR,Tipton Christian Church,False,52.5274541313682,-2.06627154377774
BS7 8TZ,Bristol Vineyard,False,51.4851025995826,-2.58589145959016
B80 7ND,Studley Baptist Church,False,52.2679627,-1.894052459
BT6 8FE,Willowfield Parish Church,True,54.590583,-5.90501
BS2 0AN,Salvation Army Bristol Easton Corps,False,51.4575456333094,-2.57268551977524
WV7 3JB,St Bartholemew's Church Tong,False,52.6344034947358,-2.27798020862341
TW2 5AB,Twickenham Green Baptist Church,False,51.444688784730495,-0.341309168904569
N17 8DP,Living Word Temple,False,51.6055110350999,-0.07079
SE1 5AG,Family Life Christian Centre,False,51.48595,-0.072185
SE1 3EU,RCCG Bethel Tabernacle,False,51.494472113951,-0.075368941187968
TW1 3BB,Church of the Living God,False,51.450974,-0.319062
SE1 5AN,RCCG Inspiration House - London SE1,False,51.4846537568174,-0.071299
SW12 9HE,Bedford Hill Baptist Church,False,51.440747,-0.148126492882355
ME14 1RU,The Life Church - Maidstone,False,51.2771132649247,0.523681
ME14 1RU,Maidstone - International Community Church,False,51.2771132649247,0.523681
ME14 1RU,North Kent Methodist Circuit,False,51.2771132649247,0.523681
ME14 1RU,Union Street Methodist,False,51.2771132649247,0.523681
KT15 3NW,Heathervale Baptist Church,False,51.349197896876,-0.495151879011027
CR0 1XP,New Life Christian Centre,True,51.374884,-0.105979
TF4 2GA,Telford Christian Fellowship,False,52.6692593649861,-2.47731821257457
S8 7GP,South Sheffield Evangelical,False,53.3211566084528,-1.49502945234411
BS5 8AF,Bethel Church Bristol,False,51.4593258542497,-2.54826764647484
DD3 6NE,Full Gospel Church,False,56.467309595170306,-2.97708053759849
LS7 3JG,Scott Hall Church,False,53.8191489196712,-1.53943349780585
DD5 2EZ,Broughty Ferry Baptist Church,False,56.46571244988431,-2.870458
HX1 1YS,Central Church Halifax,False,53.7246015577318,-1.86403443797838
DH1 1BQ,Carrville Methodist Church,False,54.7892162006073,-1.52708225102845
BB7 2DL,St James' Church Clitheroe,False,53.87380668,-2.388331851
HA8 7BJ,No Limits International Christian Centre,False,51.6120910417068,-0.277153365971019
HA8 7BJ,Action Chapel International,False,51.6120910417068,-0.277153365971019
LS6 4NP,Holy Trinity Meanwood,False,53.83136135875311,-1.56783391001228
LS9 9EJ,The Foursquare Church,False,53.7976932487956,-1.500499
LS10 3QN,St Peter (Parish of St Margaret Clitherow) - Leeds,False,53.7594666191358,-1.52746657290184
L38 0BL,"St. Stephens, Hightown",False,53.5261456026738,-3.06014107638185
L38 0BL,St. Stephen,False,53.5261456026738,-3.06014107638185
BH23 8JH,St Mary the Virgin,False,50.7779274,-1.730595247
HG1 5RD,Harrogate Baptist Church,False,53.9913337861348,-1.53579789674301
HG1 1HP,Our Lady Immaculate & St. Robert,False,53.9889699279469,-1.53811186671749
TD1 1HH,Galashiels Baptist Church,False,55.617355263995904,-2.81724806848069
CH63 2JH,Jireh Evangelical Church,False,53.3532759300725,-3.0245052963337
WA15 0HF,Holy Angels - Hale Barns,False,53.369658,-2.317495
ME5 9TF,"RCCG Friends Parish - Chatham, Kent",False,51.349784632979905,0.51170084831292
PE34 3QB,Grace Community Church,False,52.62324669517329,0.384650776615898
BT17 9QT,Kilmakee Presbyterian Church - Belfast - NI,False,54.541475,-6.012827
S20 3GZ,New Hope Community Church,False,53.326454,-1.340637
LA9 4QG,St Thomas Kendal,False,54.3308831179356,-2.74789809372917
LA9 4QG,Kendal & District Churches,False,54.3308831179356,-2.74789809372917
SW14 8DU,"Parkside Christian Centre, ELIM",False,51.464945780814,-0.259839071700831
SW14 8DU,Parkside Christian Centre,False,51.464945780814,-0.259839071700831
LE67 9WD,St Michael & All Angels Church,False,52.6853697022641,-1.28016562135105
RG23 8PX,St Thomas Church - Worting,False,51.2633415724855,-1.14023531384485
ML1 5BQ,Newarthill and Carfin Church,False,55.81488796242,-3.94822129572837
DE23 6GF,St Peter's Church - littleover,False,52.9041873231802,-1.50757502108794
KT22 9AZ,St Mary's Church - Fetcham,False,51.2868628138676,-0.353512184237686
HA3 5AH,RCCG House of Joy for All Nations,False,51.59286245643,-0.334242811692997
BR1 4PU,Brook Lane Community Church,False,51.42000466,0.015004189
PH10 6BA,Church on the Way,False,56.5933400037277,-3.3391901556218
ML8 4BA,Carluke (Kirkstyle) Baptist Church,False,55.735275679252,-3.83664311142417
CF3 2TX,Castleton Baptist Church,False,51.531618,-3.068878
CT10 3AZ,St Andrew's Church - Broadstairs,False,51.37429507818089,1.43156247939593
KY12 0JY,Headwell Church Of The Nazarene,False,56.0798693761888,-3.44949741241763
CM6 2ND,Thaxted Baptist Church,False,51.95228950471849,0.344091981556696
LS22 6WD,Wetherby Community Church of the Salvation Army,False,53.935928,-1.39683888768236
HG3 1AF,"All Saints' Church, Kirk Deighton",False,53.954846544149696,-1.44729938972677
LS6 3AW,St Michael and All Angels' Church,False,53.81934232685649,-1.57734469592299
HG3 1JZ,St Roberts Church,False,53.9609407157898,-1.53672982742513
GU9 0PA,Hale Methodist Church,False,51.233344,-0.793666562073702
BN15 8PF,Lancing Methodist,False,50.82505119,-0.323977071
SO40 7EH,Christ Church Colbury,False,50.894476,-1.506052
DL12 8JB,Barnard Castle URC,False,54.5435271613468,-1.9222944990203
DL12 8JB,Barnard Castle Christian Fellowship,False,54.5435271613468,-1.9222944990203
DL12 8ST,St Mary's Barnard Castle,False,54.5402539678978,-1.91925586379319
GU9 7HA,Farnham Baptist Church,False,51.2151780437221,-0.804124981058921
GU9 0NX,Parish Of Hale With Badshot Lea,False,51.2313194441049,-0.790143006635657
GU21 5JG,Word Of Life Christian Church,False,51.3221202172997,-0.550645238652371
DL14 7ST,Escomb Saxon Church,False,54.6627387711219,-1.71022638790369
CB4 2ET,The Church of the Good Shepherd,False,52.2253675680832,0.126382028905734
BR1 3QD,"Larder Ministries Church, Bromley",False,51.41193649,0.013527735
KW1 5QB,Wick and Keiss Baptist Churches,False,58.4386290229396,-3.09176567518388
PR1 1LA,The Potters House Church - Preston,False,53.7696895909392,-2.7054763838695
TR1 3TJ,"Grace Church, Truro",False,50.26712085861529,-5.06141622552705
EX5 7DT,"Cornerstone Church, Cranbrook",False,50.745605348746096,-3.41616954997914
BS6 7HE,Redland Parish Church,False,51.4725593964629,-2.60534034323966
NR27 9DT,Cromer Methodist Church,False,52.930055766714496,1.29505489734262
B8 2BA,Ward End Elim Church,False,52.49435421,-1.833578648
B8 2BA,St. Margarets Community Trust,False,52.49435421,-1.833578648
BN14 8HT,St Mary's Broadwater,False,50.827007,-0.374323108
BN14 8HT,Queen Street Fellowship,False,50.827007,-0.374323108
BR3 5JE,Bethany-Cogic,False,51.40835042,-0.024102172
BR3 5JE,Beckenham Methodist Church,False,51.40835042,-0.024102172
HA8 7NN,Emmanuel Edgware Church,False,51.612529,-0.279924
BN20 9RA,St Wilfrids,False,50.81052554,0.240722415
TN40 1QA,Beulah Baptist Church,False,50.841567946494,0.474146763325037
E13 8AL,Memorial Community Church,False,51.523557740890894,0.024834132825287
E13 8AL,Ethiopian Church,False,51.523557740890894,0.024834132825287
E6 1QF,Latimer Christian Fellowship,False,51.532846395029,0.041481617644922
LS8 1JN,St. Edmund's Church,False,53.837779,-1.513699
NW2 1BU,St Peter Cricklewood,False,51.563853,-0.215423
WF2 6JU,St. Paul's Church,False,53.6458467742741,-1.46341745338033
BT35 6AN,Newry Metropolitan Church,False,54.178229,-6.339525
AB10 1YN,Queens Cross Church,False,57.14273661,-2.124510061
BT42 2PA,Trinity Ahoghill Presbyterian Church - Balleymena - NI,False,54.850015,-6.366634
AB11 6UD,Ferryhill Parish Church,False,57.13670815,-2.105902941
AB15 6JL,Summerhill Church,False,57.146658,-2.159443
EH45 9DT,Scottish Episcopal Church,False,55.6474678171669,-3.19869519028929
GU15 2AD,"St Paul's, Camberley",False,51.33802,-0.729625
CF3 5SU,Bethania Church - Old St. Mellons,False,51.5223232969666,-3.1138336194186
AL1 5PX,Cornerstone Church,False,51.74369979,-0.312477705
PE37 7NP,Swaffham Breckland Christian Fellowship,False,52.6458733730314,0.686490796380467
HR9 7SE,Gorsley Baptist Church,False,51.931629,-2.478262
EH11 4DE,Barnton Baptist Church,False,55.9261167850795,-3.29010701037166
SE15 4QS,All Saints -  Peckham,True,51.4691044209762,-0.070358
M33 4BP,Life Church Manchester,True,53.415061,-2.33669897924076
M33 4BP,Kingsway Church,True,53.415061,-2.33669897924076
WS13 6TS,Life Church - Lichfield,False,52.694410141141695,-1.8192668675987
GU2 9UD,Emmanuel Church,False,51.2565066185903,-0.595988563658213
LE19 4AN,Enderby Life Church,False,52.590735887281106,-1.21142243702083
BT33 0AW,Kairos Community Centre,False,54.214992,-5.889566
M16 0JE,St Hilda's - Manchester,False,53.4533435454512,-2.28413220990609
EX18 7HL,The Beacon,False,50.896258649637,-3.83232612753299
BR8 8LP,Trinity Baptist Church,False,51.383115,0.15707
CF31 3NH,"The Parish of Coity, Nolton, Brackla",False,51.50392902699551,-3.577722
TS10 4PJ,New Life Church Redcar,False,54.5945635721632,-1.07066415009422
FK10 2DR,Alloa Baptist Church,False,56.118459524674094,-3.79761488259398
WR14 1GD,Eden Church,False,52.12849,-2.301244
HA3 9HP,Kenton Evangelical Church,False,51.588454290493,-0.299614424367268
HA3 0JH,St John's URC,False,51.582440936555,-0.306002064333845
DN22 8ND,Scrooby With Ranskill PCC,False,53.38372946020289,-1.01323418567247
CF64 4QU,Bethesda Chapel,False,51.4323964170778,-3.21162422648192
BN1 8YE,All Saints Church Patcham,False,50.86582278,-0.151597528
BN1 5GS,Ascension Church Westdene,False,50.85819645428911,-0.16117762521283
NG25 0HD,Southwell Minster,False,53.0775900420467,-0.95489270749307
NG8 2AF,"St Leonard's Church, Wollaton",False,52.953211788997905,-1.2196871998485
LS27 0AL,Morley Community Church,False,53.7408320662038,-1.60927363294388
YO23 1DH,York Evangelical Church,False,53.9476866850261,-1.09274983706539
NG17 9JE,"St. John the Evangelist, Kirkby Woodhouse",False,53.077621750431504,-1.25861049048518
DN20 0PY,Grimsby Baptist Church,False,53.626296451414305,-0.486101827965927
RM10 9QL,Hope Church Dagenham,False,51.5340332776037,0.155589604382207
HD5 8JZ,Longley And Lowerhouses Community Church,False,53.633732993172,-1.76601305538564
HD5 8JZ,The Ark,False,53.633732993172,-1.76601305538564
RG4 8EB,Caversham Methodist Church,False,51.46579144042791,-0.963082619075657
RG4 8EB,Caversham St John the Baptist,False,51.46579144042791,-0.963082619075657
PL2 1AB,"St Michael and St Barnabas, Devonport",False,50.3790693658216,-4.17025617312126
DN2 5AP,Life Church Doncaster,False,53.538249952488,-1.10252020195362
TR7 2NQ,Blaze Church - Newquay,False,50.415391,-5.07455675406799
RG1 7JS,Carey Baptist Church,False,51.45265547504,-0.979875
NR19 2AE,Wellspring Family Church,False,52.68240080337569,0.945945821931259
CF15 7NS,Ainon Baptist Church,False,51.531796691424304,-3.25239485297173
WD7 8EE,Christ Church & St Johns,False,51.6805476769868,-0.31679370036593
LS6 2DH,St Columba United Reformed Church,False,53.8192615747487,-1.57483922556759
KY11 4JU,The Vine Church,False,56.075888,-3.42630380351888
HX6 4LB,Stones Methodist Church,False,53.666059342744894,-1.95713220630977
NE26 1AE,Acorn Community Church,False,55.044717,-1.44584660503409
EC3R 5BJ,All Hallows by the Tower,False,51.509329,-0.07921
SA3 5TL,Bethany Baptist Church,False,51.583576,-4.002794
EX5 4HZ,Silverton Methodist Church,False,50.817529256325,-3.48314910338134
B5 5BB,St Martin in the Bullring,False,52.476894,-1.893126
B5 5BB,Second City Church,False,52.476894,-1.893126
BA2 1RL,St Michael and All Angels,False,51.38056157,-2.398522982
YO61 1QX,St Michael Church Tollerton,False,54.0707541816158,-1.21611245527338
YO61 1QX,St Michael's Church Tollerton,False,54.0707541816158,-1.21611245527338
BL1 6AX,Barrow Bridge Mission,False,53.58952556,-2.462946434
BL5 1EN,"St Andrew'S Church, Over Hulton",False,53.54667708,-2.467775701
BL1 6JS,Smithills Fellowship,False,53.59883171,-2.454497
CM77 7GN,The Church in Great Notley,False,51.8659817562018,0.529672165831669
IP27 9HF,Lakenheath Methodist Chapel,False,52.4163879375789,0.520696788398653
IP27 9HF,Abundant Life Church,False,52.4163879375789,0.520696788398653
LE4 8BE,"Parish Church of St Michael & All Angels, Thurmaston",False,52.681306,-1.09733834292202
NG17 4EF,New Cross Community Church,False,53.1304082157017,-1.25601368213936
NR3 3NT,Oak Grove Community Church,False,52.6521637502778,1.29288523741156
GU1 4QD,St. Saviour's,False,51.238076,-0.575383949350607
B72 1TA,Sutton Coldfield Baptist Church,False,52.56339779,-1.822017831
EH14 7ER,Wester Hailes Baptist Church,False,55.878569530827505,-3.34092786763106
SO40 3LZ,Totton: Testwood Baptist Church,False,50.9302647737213,-1.50409386546341
LS11 9NF,Voice of Revival Ministries,False,53.784808,-1.554197
B33 9LU,Glebe Farm Baptist Church,False,52.48911094,-1.792362355
OL4 3EU,Greenacre Congregational Church - Oldham,False,53.5459754395782,-2.07934272242791
BS24 9SL,St Mary's Church,False,51.3229146766153,-2.93310798260427
SS15 5AD,Holy Trinity,False,51.5688209962645,0.447418616592046
GU1 3XJ,Emmaus Rd,False,51.231750849219104,-0.573123
BS24 0PG,St Peter's And St Paul,False,51.3076755397875,-2.94737460056264
TQ2 5RN,Central Church Torquay,False,50.46830929751889,-3.533744
NW9 5QY,Trinity Church,False,51.6019804592926,-0.23923
GL50 1JS,Cambray Baptist Church,False,51.8987891116732,-2.07372462056696
EX19 8HU,Winkleigh Methodist Chapel,False,50.855562,-3.945831
HU4 7RR,Anlaby Park Methodist,False,53.7442206461328,-0.413461
ST2 8DD,Potters Church,False,53.0402143514486,-2.14702849116745
BH22 9NF,United Church Ferndown (UCF),False,50.8087109,-1.894199953
B20 2HY,The Crown - Birmingham,False,52.51545292,-1.93373304
OL8 2AA,Honeywell Lane Methodist Church - Oldham,False,53.5273634445244,-2.10971885432886
LA9 4RL,Stricklandgate Methodist Church,False,54.3330049712955,-2.74921303580013
SO43 7BB,St Michael and All Angels - Lyndhurst,False,50.8728518443379,-1.57834989733353
LN6 7RA,Holy Cross Lincoln,False,53.2124835949948,-0.566621186555399
LN6 0AE,Lincoln Evangelical Church,False,53.2119031871029,-0.574442592830969
GL10 2JA,Bethel Church Stonehouse,False,51.7452239900647,-2.28133389963666
LN2 4BY,St Giles Parish Church,False,53.2426418655678,-0.520116515003265
LN5 7PY,The Salvation Army Lincoln,False,53.222032467628,-0.544523392169324
HG4 1QT,Ripon Cathedral,False,54.13504,-1.520128
BD17 5NH,Bradford North Methodist Circuit,False,53.85310113,-1.768866673
BD17 5NH,Baildon Methodist Church,False,53.85310113,-1.768866673
NR21 9DY,Salvation Army Fakenham,False,52.8314675511744,0.846347425393239
NR21 9DY,Fakenham Baptist Community Church,False,52.8314675511744,0.846347425393239
S2 2AN,Hope Family Arbourthorne,False,53.3582124097379,-1.43382974186262
W5 4BP,Dunamis House of Praise,False,51.493646979825,-0.310707345827495
HU5 2NB,Oasis Hub Hull,False,53.7673838953168,-0.358042667537701
TS1 4BZ,Middlesbrough Community Church,False,54.5696235481936,-1.24064870044577
LA9 7DG,Parr Street Church,False,54.324843164776304,-2.74214565008082
UB10 0PH,Hope Community Church,False,51.531257,-0.451701
TF7 5AH,Madeley Baptist Church,False,52.6367381575396,-2.44875508618783
TF7 5AH,"St Mary's R.C Church - Madeley, Telford",False,52.6367381575396,-2.44875508618783
CR2 8LL,Selsdon Baptist Church - South Croydon,False,51.344937228092,-0.060403044526729
HP19 8DN,Aylesbury Vineyard,False,51.817024,-0.823747
NR1 2HX,New Hope Christian Centre,False,52.609832,1.303194
KT23 4DH,Bookham Baptist Church,True,51.278294143078895,-0.376787961600478
AB22 8ZP,Danestone Congregational Church,False,57.18262616,-2.136902177
AB22 8ZP,Pavilion of Grace,False,57.18262616,-2.136902177
AB22 8PR,Oldmachar Church,False,57.20005868,-2.122849719
AB24 2SZ,Trinity Church Aberdeen,False,57.16816218,-2.111069517
FK1 1JN,Falkirk Trinity Church,False,56.0000883736345,-3.78491367576628
FK1 1RX,Christ Church Falkirk,False,56.000596294672,-3.77650185516606
PH7 4BS,Seventh Day Adventist Church Crieff,False,56.3796512087813,-3.8468271477979
G74 2AU,Claremont Parish Church,False,55.763714,-4.15151692289561
G74 3JJ,Moncreiff Parish Church,False,55.773326,-4.15676027199664
G74 4TT,Stewartfield Church of Scotland,False,55.773877,-4.202272
TW16 6RN,St Mary's Church - sunbury-on-thames,False,51.4048258410064,-0.412770258432022
E14 3PG,Quaystone Church,False,51.4984806980838,-0.010049090713883
EH21 6AA,Hope Church - Musselbugh,False,55.9431454663345,-3.05599714176677
GU46 7LR,St Peter's Church - Yateley,False,51.34196120922591,-0.828524
TA20 1QA,Forefront Community Church,False,50.87303135241591,-2.96150006956132
CB22 3BG,Sawston Free Church,False,52.123001,0.169400358096906
LS11 7AE,Holbeck Christian Fellowship,False,53.7687601954602,-1.56299983342263
KA3 5BZ,John Knox Church of Scotland,False,55.6814375704432,-4.513319
CM15 9BN,Sawyers Church Brentwood,True,51.6224801417248,0.307029
S5 7JX,Sheffield Pentecostal Church,False,53.4137291168112,-1.46158789444993
HU6 9LZ,Hull Orchard Park Evangelical Church,False,53.786401,-0.370855
LS29 9AD,Ilkley Baptist Church,False,53.9251869425764,-1.83017263104161
LS23 6DR,St. Mary's,False,53.906236476836,-1.351103
LS23 6DR,Bramham Benefice,False,53.906236476836,-1.351103
S13 8TB,Grace Church Sheffield,False,53.370491567844304,-1.388549
DN1 2AL,Doncaster Baptist Church,False,53.519008310483294,-1.12600285648434
DN1 1RD,Doncaster Minster,False,53.526299,-1.134677
S11 8FP,Lansdowne Chapel,False,53.37185901687911,-1.47965580888251
BT51 3DZ,Hazelbank Presbyterian Church,False,55.128402,-6.682757
SO23 0JD,All Saints Church Winchester,False,51.0584019469823,-1.302391
BS3 4EA,Philip Street Chapel,False,51.4431456589925,-2.59344046534555
AB24 1TU,Seaton Community Church - Aberdeen,False,57.16639031,-2.091619189
IP24 3AU,St Mary's Catholic Church,False,52.411125993478,0.743223273765853
M13 0GL,Church Of God 7th Day,False,53.452494159608705,-2.19719479971809
M13 0GL,Longsight COGOP,False,53.452494159608705,-2.19719479971809
IG7 4NZ,St Paul's Hainault,False,51.6107853623743,0.11114173078974
SA19 7ED,Grace Christian Community,False,51.9523489988301,-4.00025665106856
BT9 6FL,Windsor Presbyterian Church,False,54.579653,-5.947985
WV5 9DN,Kingsway - Wombourne,False,52.5346023256646,-2.18394117137139
WV5 9DN,Kingsway Church,False,52.5346023256646,-2.18394117137139
ML9 1LE,Chalmers Church,False,55.728931506330305,-3.97445014043604
WN2 1PP,Aspull Methodist Church,False,53.566895513347696,-2.58719106476511
CV32 6DL,St Marks Church,False,52.294234,-1.547648
CF24 4RL,Mackintosh Evangelical Church,False,51.4952179912446,-3.1732427148327
PL25 4BH,Holy Trinity St Austell,True,50.33912490002751,-4.7905728231938
DD10 8QW,Old and St Andrew's Church,False,56.710918051447905,-2.46765657043803
GU7 1ED,St Peter and St Paul's Church - Godalming,False,51.1859835053198,-0.610709836975841
LA18 4AG,Millom Baptist Church,False,54.21013770776,-3.26767425163359
DD7 6BL,Carnoustie Panbride Church,False,56.5028904306449,-2.69837472639589
DD11 2NX,Arbirlot And Carmyllie Parish Church,False,56.5553950201777,-2.6501475444093
DD10 9FB,Dun and Hillside Parish Church,False,56.74215,-2.48988845344301
DD11 1LE,Community Spirit - Arbroath,False,56.5648090885104,-2.58149518186798
IV11 8XA,St Regulus Episcopal Church,False,57.6802705082996,-4.0308066498441
UB7 8HF,Yiewsley Baptist Church,False,51.5127078615303,-0.46903261099402
IV36 1PB,"St. Leonard's Church, Forres",False,57.6107639598008,-3.61201591187495
UB3 3EE,Salvation Army Hayes,False,51.5087947355028,-0.416091292074687
BT20 4SU,Bangor Parish Church (St Comgalls),False,54.659467,-5.665312
BT19 6JR,Groomsport Presbyterian Church,False,54.675709,-5.618342
BT19 7HA,Bangor Independent Methodist Church,False,54.648362,-5.648004
BT20 4JP,Wesley Centenary Methodist - Bangor,False,54.660838,-5.666766
BT2 8EN,St Malachys Church,False,54.59401,-5.926605
RM7 7BH,RCCG The Chapel of Courage - Romford,False,51.580414282770704,0.166545346635634
BS16 5JB,Pendennis Evangelical Church,False,51.4823192482062,-2.51000712680661
EH1 3RH,Ps & Gs Church - Edinburgh (aka St Paul's and St George's),False,55.95716793033311,-3.18858225528531
EH1 3RH,Ps & Gs Church (St Paul's and St George's),False,55.95716793033311,-3.18858225528531
ST15 8ZB,Christ Church Stone,False,52.902905,-2.146771
PL31 2PN,Bodmin Community Church,False,50.4729335366072,-4.73199173901518
PL31 2PN,Grace and Bodmin Community Churches Together,False,50.4729335366072,-4.73199173901518
TA18 8BP,Crewkerne Community Church,False,50.8822192259703,-2.79979284142972
KT3 6DR,New Malden United Reformed Church,False,51.397555312398,-0.254951187541805
GL18 1BQ,Glebe Gospel Chapel,False,51.932965491919106,-2.40955329546412
LE11 2HJ,Good Shepherd Church,False,52.758546117969296,-1.20678074641001
LE11 3SJ,Holywell Free Church,False,52.7550417953026,-1.24000489356333
LE11 4PG,The Potter's House Christian Church,False,52.766470102080895,-1.24177716705538
LE12 9PA,Shepshed Word of Life Church,False,52.7703447215741,-1.28823671558058
B38 8DQ,"The Church Of Pentecost UK, Birmingham District",False,52.40343816,-1.934708749
OL3 6AP,Family Church Saddleworth,False,53.5484106548283,-2.00574206193378
FK2 0DT,Wallacestone Methodist Church,False,55.980245,-3.741717
TD11 3DG,Duns and District Parish Church,False,55.7792318889214,-2.34545280589987
CA28 8UU,"St Bridget's, Moresby",False,54.562256,-3.55121357135956
G65 9DG,Kilsyth Church Of God,False,55.9810679651332,-4.05734718448201
UB8 3QP,St John's Hillingdon,False,51.534542,-0.460817
UB10 8BE,Ickenham United Reformed Church,False,51.5658852332484,-0.446975708041094
UB1 1NP,"St George's, Southall",False,51.5138761641967,-0.383848818654205
UB2 4AW,Grace Church Southall,False,51.5040272718534,-0.377814210138275
UB1 3HH,Holy Trinity Southall,False,51.511278873386,-0.369659419272807
DD2 2PN,City Church - Dundee,True,56.4659771347779,-2.99775602548768
M25 9TY,St Andrew' s Church - Prestwich,False,53.5209962221714,-2.29300119740657
M25 9TY,Grace Church International,False,53.5209962221714,-2.29300119740657
BA21 4JA,Southville Elim Church,False,50.94398967,-2.624238804
BA21 4JA,"The Salvation Army, Yeovil",False,50.94398967,-2.624238804
NR2 2BJ,Holy Trinity - Norwich,False,52.6247596232876,1.27994870286344
SK15 2JS,Holy Trinity Stalybridge,False,53.48260283895831,-2.05549044026887
HA2 0LQ,"King's Church, Harrow",False,51.5684201181726,-0.346722969885126
GL50 4EZ,St Paul's Church,False,51.906402448998,-2.07670243366867
B29 7PS,Selly Park Baptist Church,True,52.43839,-1.916726
B29 7PS,"Christ Church - Selly Park, Birmingham",True,52.43839,-1.916726
CH42 4NZ,Highfield United Reformed Church,False,53.3671147762578,-3.01024437225539
GU31 4JS,Salvation Army,False,50.999778524894495,-0.93788874955295
E16 1TB,Royal Docks Community Church,False,51.5044758879131,0.02166813562669
IM8 2AF,Elim Church Ramsey,False,99.999999,0.0
TR1 3BD,City Life Church (formerly Truro Baptist Church),False,50.26254,-5.058807
TR1 3BD,City Life Church,False,50.26254,-5.058807
TR14 7RZ,"Camborne, Redruth and Hayle Methodist Circuit",False,50.2068063895116,-5.29491771249325
SW9 7NE,St John The Evangelist,False,51.4666370147732,-0.110014457635362
DY1 1RW,Central Methodist Church Dudley,False,52.510252,-2.08856763537014
DE14 1EJ,Kingdom Advance Network,False,52.802862,-1.63837
DY2 8QB,Church Of God Of Prophecy,False,52.5079680412606,-2.087385
L8 0TY,Deeper Life Bible Church,False,53.3948390541019,-2.95313786754958
L24 9HJ,Gateway Church,False,53.3546033549336,-2.86974118969892
HG1 4SW,Christ Church Harrogate,False,53.9939820306657,-1.52577764939647
SK14 6NF,Hope Community Church,False,53.458957495919506,-2.01307899518266
SK14 6NF,Hattersley Community Church,False,53.458957495919506,-2.01307899518266
OX26 2LU,Lifehouse Community Church (Bicester),False,51.9060463923507,-1.17113612945947
G20 9AB,Gairbraid Parish Church,False,55.891136095904,-4.29228400495124
EN11 0PU,St Cuthbert's,False,51.7703819088774,-0.000749641251629
LE7 9PN,"St. Luke's Church, Thurnby",False,52.628704272614705,-1.04231201414376
NG8 1EA,Cornerstone Evangelical,False,52.9529610239305,-1.195444
PA19 1PA,"St John's Church, Gourock",False,55.961314,-4.818091
NN16 8XG,Open Door Church - Kettering,False,52.4012894401094,-0.724209
DE73 6TD,St Peters Church Chellaston,False,52.8688490734878,-1.43657913057133
ST3 6HB,St Andrews,False,52.991030362660894,-2.09924931122061
M1 5LN,"Christ Central, Manchester",False,53.4746376711894,-2.24763362008716
PE29 3DP,Huntingdonshire Community Church,False,52.33165354158,-0.185898642286913
SW16 2XN,Holy Trinity & St Matthias Church,False,51.431571029306305,-0.118727058667042
B80 7NJ,Studley Methodist Church,False,52.27135181,-1.893795267
IV31 6LG,Lossiemouth United Free Church,False,57.719601096534,-3.29175777161515
LS2 9ER,Blenheim Baptist Church,False,53.806287513665104,-1.54901941095609
PL1 2EN,Christ The King R C Church,False,50.3677865723586,-4.14282577922207
PL2 3BG,Engage - Plymouth,False,50.386516850868,-4.16204293328846
PL2 3PG,Plymouth Chinese Christian Fellowship,False,50.39424104313569,-4.14612922144867
BT13 2RL,Clonard Monastry - Belfast - NI,False,54.600314,-5.956185
BT7 1BU,Saint Mary Magdalene Parish Church,False,54.5901,-5.929681
PL1 5HW,Cathedral Of St Mary & St Boniface,False,50.373553957939905,-4.15051153797163
WS12 2DP,Community Life Church,False,52.6948078398856,-1.99057645753098
EN2 0QP,St Michaels and All Angels,False,51.6617453973349,-0.088821089983257
W1W 8JG,All Saints Margaret Street Church,False,51.5172119332651,-0.138737271832538
SW1X 9BZ,"Holy Trinity - Sloane Square, London",False,51.493356582914494,-0.157644252028362
RM7 9AT,"St Andrew's, Romford",False,51.574563838055504,0.175085090031487
HA1 1BA,Harrow Baptist Church,False,51.5798542431376,-0.334965
CV2 4QB,Heartbeat Church,False,52.4151288550062,-1.4850731192551
SS9 5QA,Eastwood Baptist - Leigh-on-sea,False,51.570431525162896,0.65536421036633
LA3 1QT,Fusion Church,False,54.064742,-2.88081576812938
IV16 9UQ,Kiltearn Parish Church,False,57.6634632536944,-4.33511798231027
DN10 6JA,Bawtry Community Church,False,53.4304115611226,-1.019935
PE10 0NR,Morton New Day Baptist Church,False,52.802211,-0.376061
PE10 0NR,St John the Baptist,False,52.802211,-0.376061
TA2 7NL,Wellsprings Chapel,False,51.0327279802932,-3.10702982950602
CR0 2JF,Rehoboth International Christian Centre,False,51.386532703804306,-0.096473
HA0 2DH,Cross Fellowship,False,51.5519656810409,-0.297888579549277
NE26 3HW,Whitley Lodge Baptist Church,False,55.055411,-1.463997
NE28 8EJ,Life Vineyard Church,False,54.9962548307,-1.5404392956
EH22 3BH,St. David's Catholic Church Dalkeith,False,55.890394319609904,-3.07651696754745
BT79 7HX,Hope Central Elim Omagh,False,54.613302,-7.300979
NE6 5HN,Our Lady & St Vincent - Newcastle upon Tyne,False,54.9820480829698,-1.5813367349991
NE6 5HN,Heaton Baptist Church,False,54.9820480829698,-1.5813367349991
NE29 9JA,Preston Grange Community Church,False,55.0257822914074,-1.45786914453373
NE46 3NS,Salvation Army Hexham,False,54.972363492096,-2.102212
GU6 8RL,Cranleigh Methodist Church,False,51.1425264624986,-0.494047592194677
BT23 4EY,Glen Community Church - Newtownards,False,54.60076,-5.701452
B36 8QS,Bromford Bridge Christian Fellowship,False,52.50586851,-1.814205854
B4 6EU,St Chads Cathedral,False,52.48569812,-1.898258458
MK13 0EJ,Holding Forth Christian Centre,False,52.0647996090314,-0.788774109867303
LU2 0HX,Dominion City Complex,False,51.8831849606918,-0.408182746254535
OX4 4HS,Rose Hill Methodist Church - Oxford,False,51.7312803300006,-1.22727429841412
BH21 1JH,Wimborne Salvation Army,False,50.79975655,-1.98845446
BH24 1UR,New Forest Christian Fellowship,False,50.84573919,-1.772390423
G69 0LB,New Beginnings Church - Glasgow,False,55.91126166482729,-4.08859314800846
EN1 1FS,"Jubilee Church - Southbury Road, Enfield",False,51.643563,-0.059132
SS9 2BE,Elim Pentecostal Church Leigh-on-Sea,False,51.5450337069171,0.64740843090563
SS9 2BE,Canvey Island Elim Pentecostal Church,False,51.5450337069171,0.64740843090563
TN39 5BX,Sidley Baptist Church (known as Freedom Church),True,50.8574825440238,0.469717283621531
DN2 5TB,Legacy Church - Doncaster,False,53.542061,-1.086881
BT67 0LQ,St John's Parish,False,54.480694,-6.226576
BT67 0LQ,Place Of Grace - Moira - NI,False,54.480694,-6.226576
HD5 8XW,The Net Church,False,53.6318517775982,-1.75129451182801
NG17 7AB,Ashwood Church - Kirkby in Ashfield,False,53.100954749365,-1.24666429450914
TQ7 1QD,Kingsbridge Family Church,False,50.2843515224546,-3.7783965246827
BD19 3PA,St Philips & St James,False,53.72695791,-1.715950677
DN5 7SY,St James,False,53.511525,-1.2326297336627
DN5 7SY,St James,False,53.511525,-1.2326297336627
S10 2FB,Potter's House Sheffield,False,53.3779431906736,-1.48560957906447
S10 2FB,Sheffield Jesus Centre,False,53.3779431906736,-1.48560957906447
S36 3ZN,St Mary's Parish Church,False,53.468212,-1.59414
BD21 5HT,Keighley Parish,False,53.86482135,-1.910354642
BD21 5HT,"St Andrew's Church, Keighley",False,53.86482135,-1.910354642
YO26 7PY,St James,False,53.965667,-1.28962445788891
BD23 2JE,St Andrew's Church,False,53.96089718,-2.014412293
BD23 2JE,Skipton and Grassington Methodist Circuit,False,53.96089718,-2.014412293
BN1 4AA,One Church,False,50.8263793,-0.135875158
BD23 4HY,St. Aidan's Church,False,54.00461742,-2.220899096
CF44 9PY,Ramoth Christian Centre,False,51.7376503695283,-3.51528998477532
EH8 9NZ,Community Church Edinburgh,False,55.9406237204093,-3.18037451401421
DY6 7HS,Arise Church - Kingswinford,False,52.505394211557,-2.165021
GL55 6AU,Chipping Campden Baptist Church,False,52.05147312475351,-1.78278646496417
EX5 4JH,Silverton Evangelical Church,False,50.816344341076,-3.48085443341582
EX1 2LJ,RCCG Exeter,False,50.7248489745412,-3.51918244674481
EX1 2LJ,St Matt's - Exeter,False,50.7248489745412,-3.51918244674481
TF10 8BP,St Nicholas Church,False,52.7785938784474,-2.37404395205984
EX4 1EL,St Thomas The Apostle - Exeter,False,50.7200503290462,-3.54421562212313
PO12 2ET,St Mary's - Alverstoke,False,50.7860627745626,-1.14903
B61 0LG,Catshill Methodist Church,False,52.36467959,-2.051003242
WA7 2DE,Brook Chapel,False,53.336362241882895,-2.70690774815153
WA7 2DE,Runcorn Churches Together,False,53.336362241882895,-2.70690774815153
BS26 2AP,Axbridge Parish Church,False,51.287533512732,-2.81732682414252
KT12 1NU,Cornerstone The Church,False,51.3731665776855,-0.415646880367697
TA1 1PU,Living Light Christian Church - Taunton,False,51.021048,-3.09660935640354
E5 0AJ,All Souls Church,False,51.5550797756112,-0.041003533253459
NG5 5EB,Church On Rise Park,False,53.01146703199969,-1.17495138933424
NG5 5EB,The Church on Rise Park,False,53.01146703199969,-1.17495138933424
NP25 3DL,Monmouth Methodist Church,False,51.812433393674,-2.71120799980292
B17 8LE,St Germain's,False,52.47626,-1.956818
B17 8LE,St Germain's Parish Church,False,52.47626,-1.956818
RH1 4BL,Kingdom Community Church - Redhill,False,51.257478,-0.151267
SO45 4PT,"St Andrews Church, Southampton",False,50.8525769519142,-1.41617325265349
EH6 4ND,Newhaven Church,False,55.9798066060596,-3.197418077807
BT38 8TE,Greenisland Baptist Church - NI,True,54.69687,-5.871938
CH61 1BU,Longcroft Christian Fellowship,False,53.34561731780511,-3.07755723289605
B77 1LU,St Pauls,False,52.59534667,-1.686971609
SK17 6XG,St John the Baptist - Buxton,False,53.257831104561,-1.92295738526357
CF81 9RG,Elim Community Church Pontlottyn,False,51.7441711114276,-3.27924850137241
B23 7SJ,Greek Orthodox Church Of The Holy Trinity & St Luke,False,52.5148033,-1.866774832
B16 9JN,St Augustine Church,False,52.47363749,-1.945043208
B23 6UB,Holy Metropolis of Mercia and the British Isles,False,52.52762354,-1.83836156
WS11 1DE,St Lukes Church,False,52.6889701355279,-2.02969378553184
CV7 7NH,MCF Life Church,False,52.4350060581634,-1.63792032823173
B90 3BD,Shirley Baptist Church,False,52.41375137,-1.828383167
DY9 0NS,St John the Baptist with St Saviour's - Hagley,False,52.4225494148194,-2.13935891052785
DY2 7DT,The Salvation Army Dudley,False,52.508955404887296,-2.0769697945514
WS7 9EA,Christ Church Burntwood,False,52.6793853433574,-1.90045778648873
BT15 4HS,Whitewell Tabernacle,False,54.641771,-5.921215
BT20 5NE,Ballyholme Parish Church,False,54.662925,-5.645085
BT1 2FL,Saint Patricks Church,False,54.605295,-5.931866
BT20 3BJ,Queens Parade Methodist Church,False,54.66258,-5.669721
BT4 3JB,St Colmcilles Parish,False,54.595067,-5.87128
BT17 0EW,Our Lady Queen Of Peace Parish,False,54.557714,-6.01247
BT19 6FA,Silverbirch Evangelical Church,False,54.648616,-5.640288
BT5 6LA,Knock Methodist Church - Belfast,False,54.593016,-5.855388
BT7 1LB,St Nicholas and All Saints Church Of Ireland,False,54.586894,-5.928391
SS1 2JE,Southend Vineyard,False,51.538648,0.713955
TR27 6HL,St Erth Methodist Church,False,50.1653900536467,-5.43170018604911
DT11 7HZ,Blandford Evangelical Church,False,50.8596727746664,-2.1594470074817
E4 9NG,Highams Park Baptist Church,False,51.60535880329729,-0.006924455925514
LU7 4UG,New Life Community Church,False,51.9116422432064,-0.652952347439656
EN11 8TR,St Catherine and St Pauls,False,51.7623034594867,-0.013279444823997
SN15 2HA,Bromham: St Nicholas,False,51.387513368164,-2.05254806094478
YO13 0HH,Burniston Methodist Church,False,54.323182,-0.447479
TW7 4PW,St Mary?s Church With St Luke?s,False,51.4815003741293,-0.343632021741091
UB9 5BH,St Mary's Denham,False,51.573103349287294,-0.498607064627529
HA4 7BZ,Ruislip Methodist Church,False,51.573026152198096,-0.428824187273698
BT7 2FY,Cooke Centenary Presbyterian Church,False,54.578963,-5.919157
HA4 0BP,"St Pauls Church, Ruislip Manor",False,51.566299019036,-0.410717659478156
UB7 7PT,St Martin's Church - West Drayton,False,51.5044364854183,-0.470520148223092
WD3 1JB,"St Mary The Virgin, Rickmansworth",False,51.636578,-0.467914
WD3 3HJ,All Saints Croxley Green,False,51.6472933143233,-0.454703621297998
NN18 0AU,Lifegate Baptist Church - Corby,False,52.4865184151624,-0.722704431844783
M19 3AR,Levenshulme Inspire United Reformed Church,False,53.4480720132986,-2.19155812310665
BH20 4ND,St Martin's On The Walls,False,50.68418691,-2.108515719
BH20 4ND,Wareham Team Ministry,False,50.68418691,-2.108515719
PA4 9PB,Inchinnan Parish Church,False,55.88939909126471,-4.41367891764357
TA6 3QE,Newtown Kings Church,False,51.1334879634789,-3.0118215141218
E11 1HH,St Johns Leytonstone,False,51.5695207455866,0.012200430591765
ST6 6EE,Tunstall Methodist Church,False,53.0588381913273,-2.203343
ST6 6EE,Stoke-on-Trent North Methodist Circuit,False,53.0588381913273,-2.203343
NN16 9RW,Kettering Christian Centre,False,52.408433000497105,-0.72666631384296
NR29 3SA,Light Of Life Baptist Church,False,52.674426,1.689069
IG8 8PE,Broadmead Baptist Church,False,51.601185465462095,0.044357628092566
BT28 1XN,Lagan Valley Vineyard - NI,False,54.513071,-6.047463
RG24 9AE,New Testament Church of God,False,51.2878,-1.07626201492011
RG24 9AE,NTCG Basingstoke,False,51.2878,-1.07626201492011
M18 7EY,Victory Charismatic Baptist Church - Manchester,False,53.4565273022208,-2.16971442400952
RG22 4EH,"Church of Christ the King - Brighton Hill, Basingstoke",False,51.2450282895041,-1.114058
B66 3ND,Raglan Road Christian Church,False,52.48944646,-1.956172132
SS14 1SD,St Basil the Great,False,51.5684142713585,0.493633072592541
TQ2 7TG,Willows Community Church,False,50.4903739522994,-3.557581
BN20 8QX,St Elisabeth's Church,False,50.783123,0.254778783
S60 2ER,Hope Church Rotherham,True,53.4275719066328,-1.356245680472
SG5 1HF,Christchurch Hitchin,True,51.9504642168816,-0.283030570006169
SG5 1HF,Zeo Church,True,51.9504642168816,-0.283030570006169
SG5 1HF,The Hub Church,True,51.9504642168816,-0.283030570006169
WA9 3BQ,Peasley Cross URC,False,53.443707,-2.719017
WS12 4PD,Create Church Cannock,False,52.718167,-2.039899
GL4 6NY,One Church - Gloucester,False,51.8413101761946,-2.22786509472325
DE23 8BP,St Augustine's Church,False,52.905824565348,-1.48245892546317
SA4 4ND,Penyrheol Community Church,False,51.6823067227438,-4.060039
BT14 6DQ,Cliftonpark Avenue Baptist Church,False,54.610697,-5.944875
SO17 1XN,Exilio Hub,False,50.918075,-1.402878
TD1 2RE,Stow and Heriot Church,False,55.6943402801784,-2.86233246982742
SE12 8QJ,Ichthus Lee Green Church,False,51.4566460274059,0.007535
BT1 2FJ,"Redeemer Central, Belfast",False,54.604537,-5.930807
SK4 4PB,St. Mary and St. Mina Coptic Orthodox Church,False,53.423458353185694,-2.18205733334353
YO62 6TN,St Andrew's,False,54.305309234876304,-0.882608
YO62 6TN,St Chad,False,54.305309234876304,-0.882608
YO62 6TN,St Gregory,False,54.305309234876304,-0.882608
YO62 6TN,St Mary,False,54.305309234876304,-0.882608
YO62 6TN,St Mary & St Lawrence,False,54.305309234876304,-0.882608
AB33 8PX,St. Andrew's,False,57.2318112,-2.701149824
TW13 7LX,Jubilee Priesthood Centre,False,51.4435870086318,-0.406448023574317
W7 1BW,North Hanwell Baptist - London W7,False,51.523948976051905,-0.336355064818564
SE27 0AH,The Lords Church International Ministries,False,51.4280799205037,-0.10257
NW2 1AY,RCCG House Of Glory For All Nations,False,51.571911038306304,-0.215135
SW15 2LL,Community Church Putney,False,51.4620333447488,-0.213869165265921
SW16 4NL,The Glory Mission,False,51.4045040945128,-0.122713628383012
BS13 0LT,"All Saints Church, Hartcliffe",False,51.407668333606495,-2.59798420440486
DL14 8UE,The Valley Methodist Church,False,54.647855070997295,-1.64842214972058
DL14 8LH,St James,False,54.660990448444494,-1.6292414916982
DL13 2UP,Stanhope Methodist Church,False,54.7479359561308,-2.00528124111765
KT14 6EH,St John's - West Byfleet,False,51.3387256545287,-0.503175603711222
GU14 6EG,North Camp Methodist Church,False,51.2746728871742,-0.748993
ML3 6AF,New Life Christian Centre,False,55.774591350425695,-4.0406480011235
SR8 2DW,Peterlee Christian Mission,False,54.770631,-1.344969
GU14 7AP,St Peter's - Farnborough,True,51.2922564302764,-0.749691
PO14 4AG,St Peter?s Church Titchfield,False,50.8490492796836,-1.23375496612006
S9 5AL,Darnall Road Baptist Church,False,53.3911823651016,-1.41871655977006
ZE1 0WH,Lerwick Baptist Church,False,60.1411386591258,-1.17892947763386
IV30 1LF,Elgin City Church,False,57.647758060563696,-3.31137056825879
AB51 0HY,Culsalmond And Rayne And Daviot,False,57.345793,-2.41994
DH8 5AX,St Patrick - Consett,False,54.8537101890138,-1.83385497740199
DH8 5DL,"Christ Church, Consett",False,54.853488174149504,-1.83580283095672
MK17 8RL,Woburn Sands Methodist Church,False,52.01244,-0.647759871467158
B49 5NX,Dunnington Baptist Church,False,52.17970269,-1.902539379
B93 8NY,Dorridge Methodist Church,False,52.37909899,-1.75876665
BT36 5EP,Glengormley Methodist Church,False,54.674224,-5.961527
SW6 3BU,Christ Church - London SW6,False,51.4707386731502,-0.196870125797109
BS35 2EG,Thornbury Baptist Church,False,51.607654906700894,-2.52123
PO5 4QA,The Kings Church,False,50.7936464948783,-1.08418046130209
SW11 2EZ,St Peters Battersea,False,51.4659898511609,-0.176469547545376
WD24 7GP,Soul Survivor Watford,False,51.6765757242882,-0.387479385285435
BT43 6BH,Ballymena Baptist Church,False,54.868493,-6.277028
EN1 1SP,Jubilee Church,False,51.6454,-0.058244
CH41 2UF,Gateway Church Wirral,False,53.3843916299152,-3.036603
WV2 4NP,St Luke's Wolverhampton,False,52.572062,-2.13163
KY13 9XA,Orwell & Portmoak Parish Church Office,False,56.2257054695846,-3.42078927545984
CF33 4LW,Cornelly Community Church,False,51.522316278979694,-3.70418100227703
BS21 6LH,Kenn Road Methodist Church,False,51.4291643600876,-2.85270570079517
EX15 3AN,St Mary's Church Uffculme,False,50.9068588248918,-3.32610400964777
LN6 9AF,Alive Church Hykeham,False,53.186844,-0.590569
NE64 6PS,St Bartholomew's Church,False,55.1848641209702,-1.51333312113754
CA10 2EP,Church In The Barn,False,54.628935500814,-2.71946593755743
NG16 4BP,St. Andrew's Church,False,53.0180023653456,-1.33261668649814
SY11 1NF,Albert Road Evangelical Church,False,52.862351543207104,-3.0527238126589
BD18 2EJ,Crag Road Methodist Church,False,53.8267619,-1.771138422
NG14 6ED,St Swithun's Church,False,53.025716,-1.072429
TQ13 9UA,St. Winifred's Church - Manaton,False,50.6137905402771,-3.75818397321915
WF2 0JS,St Anne's - Wrenthorpe - Wakefield,False,53.701121,-1.524091
WF2 0JS,Wrenthorpe Methodist Church,False,53.701121,-1.524091
WF2 0JS,St Michael's Wakefield,False,53.701121,-1.524091
PE31 8UL,All Saints - King's Lynn,False,52.9443470249938,0.722520033049421
PE30 3SF,Church of the Nazarene,False,52.7695146339917,0.439338
NR21 9BX,Fakenham Parish Church,False,52.8303979621208,0.847450397084775
PE15 8AH,Fenland Community Church,False,52.552556226451,0.086998953417898
WF9 4LX,Hemsworth Christian Fellowship,False,53.608781492563104,-1.35134783612869
PE3 8DX,The Church of the Holy Spirit - Bretton,False,52.589616,-0.28337
ST16 1EQ,"St Paul's - Forebridge, Stafford",False,52.811392638091,-2.14656546867924
ST16 1EQ,St Thomas Doxey,False,52.811392638091,-2.14656546867924
BT5 4PS,Exchange Church,False,54.594973,-5.903173
BT5 4PS,Covenant Love Church - Belfast - NI,False,54.594973,-5.903173
NW2 1LT,Jesus House,False,51.5704639893474,-0.225726374746002
PE1 1TT,St Mary's Church,False,52.576017090685,-0.236011349439717
HA3 5DL,Wealdstone Baptist Church,False,51.5968627756652,-0.336060050776753
WF10 5HA,Cutsyke Christian Church,False,53.714387,-1.363104
W1S 1FX,"St Georges Church, Hanover Square",False,51.512548395530494,-0.142789
WC2R 1DH,St Clement Danes RAF Church - London,False,51.51318189771111,-0.113882237933779
N18 2DS,"St John, Upper Edmonton",False,51.611978,-0.054053
SE9 5AD,Eltham United Reformed Church,False,51.4492572047814,0.051869407426756
WC2R 1ES,St Mary le Strand - London,False,51.5121866654419,-0.116863341878867
SW1V 3QW,St Saviour,False,51.4875,-0.134061125070486
NG7 1FP,Cornerstone Church,False,52.947051,-1.167382
DL14 0DG,Witton Park Methodist Church,False,54.6574732427523,-1.74238089036659
DE22 1BP,Broadway Baptist Church,False,52.9359714002878,-1.48995539806154
PE22 0LF,St Andrews,False,52.975621361037504,0.050491683705627
SE12 0RS,"St. Mildred's, Lee",False,51.445569350744705,0.011970436494911
B43 6BN,Victory Outreach Birmingham,False,52.54546151,-1.934381098
CR4 4JB,All Saints - Hackbridge,False,51.383800377682896,-0.157678459364469
BT62 3AH,Portadown Baptist,False,54.419545,-6.44251
CM3 4QL,Danbury Mission Church,True,51.716636797673694,0.587566
SY4 5DP,St Peter and St Paul Parish Church,False,52.8553415851415,-2.72610799466076
LE67 2BQ,Parish of Hugglescote with Donington-le-Heath,False,52.7112015431104,-1.36932289633224
TN9 1RE,Hillsong - Tonbridge,False,51.194712,0.277333
NR12 8SG,Wroxham and Hoveton URC,False,52.706806360989695,1.39899201447928
CH61 1BW,Christ Church Barnston,False,53.342303,-3.083346
AB23 8QN,Aberdeen Chinese Christian Church,False,57.18449291,-2.100828907
SS0 8AL,Church from Scratch,False,51.5423232059256,0.691414430316493
AB24 1RQ,St Machar's Cathedral,False,57.16942,-2.100175928
HA0 4NF,RCCG Majesty Court,False,51.5388107487197,-0.294846535064582
WF1 1DL,New Life Christian Centre - Wakefield,False,53.680299671551694,-1.500753
WF1 2QU,St John's Wakefield,False,53.6891201031678,-1.50611543808948
G2 1HY,Hope Church Glasgow,False,55.8632989064155,-4.25401333932654
PA1 1XD,Elim Christian Fellowship Paisley,False,55.841779,-4.422961
FY3 7HG,The Trinity Parish Blackpool,False,53.8295689210732,-3.03077746258551
FY3 7HG,St Mark's Layton,False,53.8295689210732,-3.03077746258551
NG10 1JX,"St Laurence, Long Eaton",False,52.898671402125906,-1.273515
YO31 7PB,The Ark,False,53.964155,-1.07630895244286
YO31 7PB,York City Church,False,53.964155,-1.07630895244286
N7 8AZ,St Giles Christian Mission,False,51.5457936981896,-0.113630022794173
WR4 0SR,Woodgreen Evangelical Church,False,52.208325084250895,-2.17689615767863
DY12 2DJ,Bewdley Baptist Church,False,52.3740346725122,-2.31457623619313
B5 6NB,Birmingham Betel City Centre Church,False,52.47104045,-1.893669744
B13 9EJ,"Church of God in Christ, Moseley Assembly",False,52.444792,-1.885052
B21 9NA,Cannon Street Memorial Baptist Church,False,52.5045425,-1.940025342
B15 3BE,City Church,False,52.47008231,-1.921641556
B17 0DB,Oasis Church - Harborne,False,52.4583199,-1.948005562
B29 7HU,St Stephen's and St. Wulstan's Church,False,52.44413056,-1.925306641
BT8 6GQ,Saintfield Road Presbyterian Church - NI,False,54.55019,-5.903359
KA20 3AG,Townhead Christian Fellowship,False,55.6413469437936,-4.75498848445025
BT2 7HP,Shaftesbury Square Reformed Presbyterian Church - Belfast,False,54.590621,-5.932883
CO11 2JX,"St. Mary's Church, Lawford",False,51.9431383977161,1.03728652635072
SE27 0HS,St Lukes Church,False,51.4309492455527,-0.104136260497445
SE27 9HN,London Spanish-Speaking Baptist Church,False,51.436766774740306,-0.100758809054744
PE30 5BN,St Michael Ingoldisthorpe,False,52.7404302677782,0.396511295230245
YO31 9BP,Living Word Church York,False,53.97674386784529,-1.07257179335478
KW1 5QF,"St John the Evangelist, Wick",False,58.4382561937742,-3.09230223938995
KW1 5QF,St John The Evangelist - Scottish Episcopal Church - Wick,False,58.4382561937742,-3.09230223938995
N15 3AA,"The Salvation Army, Tottenham Citadel",False,51.5846416516669,-0.092520203390606
N15 3AA,Canaan Church,False,51.5846416516669,-0.092520203390606
UB4 0HA,St Edmunds of Canterbury,False,51.52305554793129,-0.399466539021146
UB4 8DG,St Nicholas Church,False,51.526591,-0.420058
CB7 5ZQ,Haddeham Methodist Church,False,52.3442696174623,0.330669322602099
CB7 5ZQ,Ely and Newmarket Methodist Circuit,False,52.3442696174623,0.330669322602099
EX20 2NL,Sticklepath Community Church,False,50.7306831860756,-3.92857761331812
SW16 4LF,Grace Assembly - Norbury,False,51.4056415918742,-0.111236373777992
CA10 3RT,"All Saints Church, Orton",False,54.4685807612827,-2.586363
WD24 5BD,Watford Elim Church,False,51.6683238568834,-0.398198629663814
WD24 5BD,Christ Church,False,51.6683238568834,-0.398198629663814
HA2 9SZ,World Christian Fellowship UK,False,51.575240101859,-0.378065487473212
NR33 8AT,St Peter's Church - Carlton Colville,False,52.4518155334759,1.69336891000794
SS16 6HJ,"Living Word Community Church, Basildon",False,51.5582819287072,0.419627929304015
TA3 7JZ,"All Saints Church, Trull",False,50.99378,-3.11957587036742
BH19 2NY,Swanage United Reformed Church,False,50.60837705,-1.96107
BH19 2NY,Swanage URC,False,50.60837705,-1.96107
ST4 3BE,Blurton Baptist Church,False,52.991653194466494,-2.16219278344558
S80 2EJ,Gospel Hall Project,False,53.3063607402788,-1.12130090842079
NN3 2HT,Northampton Methodist Circuit,False,52.2511310251793,-0.869783628641293
NN3 2HT,Park Avenue Methodist Church,False,52.2511310251793,-0.869783628641293
E15 1JL,Stratford St Pauls Church,False,51.547747174980096,0.001301945781772
DT6 3RW,Bridport Evangelical Church,False,50.731073904806706,-2.76019108113814
DT6 3RW,Beacon Church Bridport,False,50.731073904806706,-2.76019108113814
PE9 3RD,St Mary's Church Ketton,False,52.6272381740266,-0.551511
NN16 0SX,Praise Community Church,False,52.400456916566895,-0.720707835702183
NN16 8JU,Salvation Army Kettering Citadel,False,52.4049337198856,-0.726487759470425
DL1 2DD,St Andrew's Church Haughton,True,54.53796238061489,-1.52198434681816
DL1 2DD,Haughton Methodist Church,True,54.53796238061489,-1.52198434681816
WV11 1SB,St Thomas Wednesfield,False,52.6010746475029,-2.08932732501184
DE21 6LS,St Mary's Chaddesden Parish Church,False,52.9284988230961,-1.43381190526492
IP26 5AT,St Michael's Didlington,False,52.5447721746574,0.626414166730594
IP26 5AT,Didlington: St Michael,False,52.5447721746574,0.626414166730594
IP24 2BQ,Thetford Methodist Church,False,52.4129890304004,0.748574307749457
IP24 2BQ,"Thetford, Diss and Mildenhall Methodist Circuit",False,52.4129890304004,0.748574307749457
IP24 2BN,Thetford Salvation Army,False,52.4141165187647,0.752291654332011
EX39 1JL,St Margarets,False,51.0406723333707,-4.21396196969224
PE13 3RA,All Saints Church,False,52.671929213878705,0.18209715319153
PE31 8HD,St Henry Walpole,False,52.9451500442894,0.725281
PE13 5AS,St Leonard's Church,False,52.681525923488,0.133546425108765
PE12 7LW,"St Mary Magdalene, Gedney",False,52.804335443403694,0.012706424543117
FK3 9JH,St Mary's Episcopal Church,False,56.0173543715538,-3.71632241040014
FK3 9JH,Zetland Parish Chuurch,False,56.0173543715538,-3.71632241040014
BS23 1LF,Boulevard URC Church,False,51.3503975588343,-2.9778795928749
WF8 1QG,Micklegate Methodist Church,False,53.693990448755,-1.30515
LS3 1HD,North Church - Leeds,False,53.801319959963294,-1.56702
LS3 1HD,North Church,False,53.801319959963294,-1.56702
NN10 9UJ,St Peter's Church,False,52.2934225084659,-0.604024887912034
RG23 8BU,Church of the Good Shepherd,False,51.26842005426,-1.1241868510601
DD3 7BS,Hillbank Evangelical Church,False,56.468936025525906,-2.9644131226407
BT4 1GZ,Ballymacarrett Parish Church,False,54.599568,-5.901578
GU32 3HS,St Peter's Church,False,51.003485,-0.937875
OX1 4BJ,University Church Of St Mary The Virgin,False,51.752434005422,-1.25327911571516
TQ12 2HN,St. Paul's Church (Newton Abbot Parish),False,50.5300018615426,-3.60397825530914
WR10 1BJ,Pershore Community Church,False,52.111805,-2.076939
NN17 3DF,Gretton Baptist Church,False,52.537577,-0.675336907357005
IV12 4BE,Nairn Christian Fellowship,False,57.5843137594978,-3.870987
MK18 1BS,Buckingham Parish Church,False,51.9992270213567,-0.988940294194463
EX4 9ER,Clyst Mission Community,False,50.740644564045105,-3.47052798027732
EX4 9ER,St Michael and All Angels - Pinhoe,False,50.740644564045105,-3.47052798027732
PO14 3TA,Stubbington Baptist Church,False,50.8329359594909,-1.22040084558908
PO14 1DN,St John's Church,False,50.8476190681656,-1.19234367526262
SW18 5RH,Everyday Church Southfields,False,51.4465100207668,-0.204890632136548
SO50 6DA,Bishopstoke C of E Church,False,50.974728,-1.334625
TS23 2EP,Our Lady of The Most Holy Rosary R C Church,False,54.611143663368495,-1.29879005032244
SO50 5SD,St Andrews Methodist Church,False,50.9659596439743,-1.35238034347376
DL3 0HW,Harrowgate Hill Christian Fellowship,False,54.5468193192074,-1.55384934794336
NE24 4AS,St Bede's Church,False,55.108315090953695,-1.53017314521386
WD3 6AS,The Benefice Of Holy Cross Sarrat And St Pauls,False,51.6820432053988,-0.49175201709189
WD3 1ET,Rickmansworth Baptist Church,False,51.639012184924894,-0.466401679479313
GY1 2PS,Eldad Elim Church,False,99.999999,0.0
TR1 3DR,Kenwyn & St Allen Church - truro,False,50.271252,-5.06208211971409
SA2 9LP,All Souls - Sketty,False,51.622680148275,-3.993117
SA5 8PW,Christ Well United Reformed Church,False,51.6415703319569,-3.95411364697142
SA1 8BS,Fabian's Bay Congregational Church,False,51.6228340044491,-3.93051108699323
SA13 1YE,"St Agnes, Port Talbot Church",False,51.5969285527863,-3.77967013408215
DA1 1DZ,COSEC Sanctuary Of Hope,False,51.4461011097336,0.220121835829005
TR11 3DX,King Charles The Martyr,False,50.1533761621362,-5.06762337837702
CH64 2TL,Christ Church Willaston,False,53.2926513509648,-3.00788602034982
PL4 0NL,St John the Evangelist,False,50.3697158447917,-4.12740129139617
LS7 2HJ,Christ Embassy,False,53.8187563254519,-1.5425364437879
EN8 7HH,Waltham Cross Baptist Church,False,51.688053,-0.029756
TR11 2TY,Falmouth Evangelical Church,False,50.1479110178103,-5.07731112163544
TR11 3PH,Falmouth United Reformed Church With Trinity Bapti,False,50.1544232820904,-5.07428514028689
KA1 3AN,Kilmarnock Baptist Church,False,55.606748964945,-4.493165
PO40 9NB,Colwell Baptist Church,False,50.688068923737696,-1.5328673346728
TR19 7LY,St Just Free Church,False,50.1229874846532,-5.68312194702402
LS7 3JB,Faith Heritage International Christian Centre,False,53.810607,-1.536065
WF17 5QL,Batley Christian Fellowship,False,53.7124507097804,-1.63597509016363
LS17 5PX,"St. Stephen's Church, Moortown",False,53.8485022431426,-1.55332370966886
DE7 5BB,Nottingham Road Methodist Church,False,52.9611850634593,-1.29596062429998
KY10 2QL,Coastline Community Church,False,56.2148639151492,-2.73172689944571
TN34 2SA,King's 1066,False,50.886763041737,0.569874615100203
TN34 2SA,King's 1066 (was known as King's Church Hastings),False,50.886763041737,0.569874615100203
YO23 2QG,St Andrew's Church Bishopthorpe,False,53.922725889044095,-1.09860543399249
S1 2JB,Central United Reformed Church Sheffield,False,53.381495,-1.467301
S1 2JB,Victoria Hall Methodist,False,53.381495,-1.467301
S1 2JB,Sheffield Central Deaf Club Church,False,53.381495,-1.467301
